[{"name":"Cornishon Pickleball Courts","lat":34.2044856,"lon":-118.2035072,"city":"Los Angeles","court_count":0,"access":"public","surface":"","description":"","geocoded":true},{"name":"Scholl Canyon Golf Course","lat":34.1573647,"lon":-118.2316235,"city":"Glendale, CA","court_count":8,"access":"public","surface":"","description":"","geocoded":true},{"name":"Jefferson Elementary School","lat":34.1538957,"lon":-118.1192368,"city":"Pasadena, CA","court_count":0,"access":"public","surface":"","description":"","geocoded":true},{"name":"iPickle Arcadia","lat":34.1334337,"lon":-118.036376,"city":"Arcadia, CA","court_count":8,"access":"fee","surface":"perm","description":"","geocoded":true},{"name":"iPickle Arroyo Seco","lat":34.1170653,"lon":-118.1679946,"city":"South Pasadena, CA","court_count":12,"access":"fee","surface":"perm","description":"","geocoded":true},{"name":"iPickle The Narrows","lat":34.0428625,"lon":-118.0557184,"city":"South El Monte, CA","court_count":28,"access":"fee","surface":"perm","description":"","geocoded":true},{"name":"iPickle Cerritos","lat":33.8521766,"lon":-118.0634006,"city":"Cerritos, CA","court_count":10,"access":"fee","surface":"perm","description":"","geocoded":true},{"name":"iPickle La Habra","lat":33.9289583,"lon":-117.946213,"city":"La Habra, CA","court_count":17,"access":"fee","surface":"perm","description":"","geocoded":true},{"name":"iPickle Riverside","lat":33.9605784,"lon":-117.3482388,"city":"Riverside, CA","court_count":8,"access":"fee","surface":"perm","description":"","geocoded":true},{"name":"The Picklr - Carlsbad","lat":33.13578,"lon":-117.27245,"city":"Carlsbad, CA","court_count":10,"access":"fee","surface":"perm","description":"","geocoded":true},{"name":"The Picklr - Fairfield","lat":38.2622,"lon":-122.05804,"city":"Fairfield, CA","court_count":7,"access":"fee","surface":"perm","description":"","geocoded":true},{"name":"The Picklr - Fountain Valley","lat":33.70264,"lon":-117.96991,"city":"Fountain Valley, CA","court_count":6,"access":"fee","surface":"perm","description":"","geocoded":true},{"name":"The Picklr - Milpitas","lat":37.42637,"lon":-121.9228,"city":"Milpitas, CA","court_count":0,"access":"fee","surface":"perm","description":"","geocoded":true},{"name":"The Picklr - Placentia","lat":33.88818,"lon":-117.86218,"city":"Placentia, CA","court_count":7,"access":"fee","surface":"perm","description":"","geocoded":true},{"name":"The Picklr - Rancho Cordova","lat":38.6016,"lon":-121.27143,"city":"Rancho Cordova, CA","court_count":10,"access":"fee","surface":"perm","description":"","geocoded":true},{"name":"The Picklr - Rancho Santa Margarita","lat":33.64001,"lon":-117.59482,"city":"Rancho Santa Margarita, CA","court_count":9,"access":"fee","surface":"perm","description":"","geocoded":true},{"name":"The Picklr - Goleta","lat":34.44277,"lon":-119.83077,"city":"Goleta, CA","court_count":7,"access":"fee","surface":"perm","description":"","geocoded":true},{"name":"The Picklr - Cave Creek","lat":33.79695,"lon":-111.92758,"city":"Scottsdale, AZ","court_count":8,"access":"fee","surface":"perm","description":"","geocoded":true},{"name":"The Picklr - Mesa","lat":33.43594,"lon":-111.70161,"city":"Mesa, AZ","court_count":9,"access":"fee","surface":"perm","description":"","geocoded":true},{"name":"The Picklr - Oro Valley","lat":32.41805,"lon":-110.93753,"city":"Oro Valley, AZ","court_count":11,"access":"fee","surface":"perm","description":"","geocoded":true},{"name":"The Picklr - Peoria","lat":33.61136,"lon":-112.22212,"city":"Peoria, AZ","court_count":8,"access":"fee","surface":"perm","description":"","geocoded":true},{"name":"The Picklr - Scottsdale North","lat":33.53897,"lon":-111.88316,"city":"Scottsdale, AZ","court_count":12,"access":"fee","surface":"perm","description":"","geocoded":true},{"name":"The Picklr - Tempe","lat":33.34904,"lon":-111.96135,"city":"Tempe, AZ","court_count":8,"access":"fee","surface":"perm","description":"","geocoded":true},{"name":"The Picklr - Birmingham","lat":33.43909,"lon":-86.78828,"city":"Vestavia Hills, AL","court_count":10,"access":"fee","surface":"perm","description":"","geocoded":true},{"name":"The Picklr - Huntsville","lat":34.74146,"lon":-86.67327,"city":"Huntsville, AL","court_count":0,"access":"fee","surface":"perm","description":"","geocoded":true},{"name":"The Picklr - Aurora","lat":39.60664,"lon":-104.7103,"city":"Aurora, CO","court_count":8,"access":"fee","surface":"perm","description":"","geocoded":true},{"name":"The Picklr - Cherry Creek South","lat":39.67649,"lon":-104.90154,"city":"Denver, CO","court_count":11,"access":"fee","surface":"perm","description":"","geocoded":true},{"name":"The Picklr - Fort Collins","lat":40.56284,"lon":-105.03734,"city":"Fort Collins, CO","court_count":10,"access":"fee","surface":"perm","description":"","geocoded":true},{"name":"The Picklr - Littleton","lat":39.61771,"lon":-105.09049,"city":"Littleton, CO","court_count":0,"access":"fee","surface":"perm","description":"","geocoded":true},{"name":"The Picklr - Loveland","lat":40.42431,"lon":-105.07766,"city":"Loveland, CO","court_count":9,"access":"fee","surface":"perm","description":"","geocoded":true},{"name":"The Picklr - Thornton","lat":39.87741,"lon":-104.98395,"city":"Thornton, CO","court_count":9,"access":"fee","surface":"perm","description":"","geocoded":true},{"name":"The Picklr - Newark","lat":39.68284,"lon":-75.75157,"city":"Newark, DE","court_count":12,"access":"fee","surface":"perm","description":"","geocoded":true},{"name":"The Picklr - Orlando North","lat":28.67166,"lon":-81.44931,"city":"Apopka, FL","court_count":8,"access":"fee","surface":"perm","description":"","geocoded":true},{"name":"The Picklr - Cumming","lat":34.17353,"lon":-84.13913,"city":"Cumming, GA","court_count":7,"access":"fee","surface":"perm","description":"","geocoded":true},{"name":"The Picklr - Avon","lat":39.76574,"lon":-86.39231,"city":"Avon, IN","court_count":12,"access":"fee","surface":"perm","description":"","geocoded":true},{"name":"The Picklr - Greenwood","lat":39.6137,"lon":-86.10954,"city":"Greenwood, IN","court_count":12,"access":"fee","surface":"perm","description":"","geocoded":true},{"name":"The Picklr - Keystone Crossing","lat":39.9105,"lon":-86.10098,"city":"Indianapolis, IN","court_count":10,"access":"fee","surface":"perm","description":"","geocoded":true},{"name":"The Picklr - Cheyenne","lat":41.13807,"lon":-104.76366,"city":"Cheyenne, WY","court_count":8,"access":"fee","surface":"perm","description":"","geocoded":true},{"name":"The Picklr - Green Bay","lat":44.49701,"lon":-88.05474,"city":"Green Bay, WI","court_count":7,"access":"fee","surface":"perm","description":"","geocoded":true},{"name":"The Picklr - Menomonee Falls","lat":43.1589109,"lon":-88.0924897,"city":"Menomonee Falls, WI","court_count":9,"access":"fee","surface":"perm","description":"","geocoded":true},{"name":"The Picklr - West Allis","lat":42.9979632,"lon":-88.0468734,"city":"West Allis, WI","court_count":10,"access":"fee","surface":"perm","description":"","geocoded":true},{"name":"The Picklr - Federal Way","lat":47.3555942,"lon":-122.3121037,"city":"Federal Way, WA","court_count":14,"access":"fee","surface":"perm","description":"","geocoded":true},{"name":"The Picklr - Fremont","lat":47.6520262,"lon":-122.3560523,"city":"Seattle, WA","court_count":10,"access":"fee","surface":"perm","description":"","geocoded":true},{"name":"The Picklr - Tacoma","lat":47.2699315,"lon":-122.514044,"city":"Tacoma, WA","court_count":9,"access":"fee","surface":"perm","description":"","geocoded":true},{"name":"The Picklr - Fredericksburg","lat":38.2956287,"lon":-77.5140602,"city":"Fredericksburg, VA","court_count":10,"access":"fee","surface":"perm","description":"","geocoded":true},{"name":"The Picklr - Sterling","lat":39.00175,"lon":-77.40333,"city":"Sterling, VA","court_count":10,"access":"fee","surface":"perm","description":"","geocoded":true},{"name":"The Picklr - Williamsburg","lat":37.27125,"lon":-76.70003,"city":"Williamsburg, VA","court_count":11,"access":"fee","surface":"perm","description":"","geocoded":true},{"name":"The Picklr - Arlington","lat":32.666131,"lon":-97.13399,"city":"Arlington, TX","court_count":13,"access":"fee","surface":"perm","description":"","geocoded":true},{"name":"The Picklr - Austin West","lat":30.4321059,"lon":-97.8415413,"city":"Austin, TX","court_count":11,"access":"fee","surface":"perm","description":"","geocoded":true},{"name":"The Picklr - Cypress","lat":29.9901408,"lon":-95.678141,"city":"Cypress, TX","court_count":6,"access":"fee","surface":"perm","description":"","geocoded":true},{"name":"The Picklr - Denton","lat":33.2318539,"lon":-97.1408085,"city":"Denton, TX","court_count":8,"access":"fee","surface":"perm","description":"","geocoded":true},{"name":"The Picklr - Hurst","lat":32.8392219,"lon":-97.1909809,"city":"Hurst, TX","court_count":12,"access":"fee","surface":"perm","description":"","geocoded":true},{"name":"The Picklr - Katy","lat":29.62526,"lon":-95.74385,"city":"Richmond, TX","court_count":0,"access":"fee","surface":"perm","description":"","geocoded":true},{"name":"The Picklr - Lewisville","lat":33.0052737,"lon":-96.9704474,"city":"Lewisville, TX","court_count":9,"access":"fee","surface":"perm","description":"","geocoded":true},{"name":"The Picklr - Live Oak","lat":29.5776435,"lon":-98.3393642,"city":"Live Oak, TX","court_count":13,"access":"fee","surface":"perm","description":"","geocoded":true},{"name":"The Picklr - McKinney","lat":33.1729287,"lon":-96.6438674,"city":"McKinney, TX","court_count":9,"access":"fee","surface":"perm","description":"","geocoded":true},{"name":"The Picklr - Oak Hill","lat":30.24501,"lon":-97.8856,"city":"Austin, TX","court_count":8,"access":"fee","surface":"perm","description":"","geocoded":true},{"name":"The Picklr - Pearland","lat":29.5592658,"lon":-95.271588,"city":"Pearland, TX","court_count":8,"access":"fee","surface":"perm","description":"","geocoded":true},{"name":"The Picklr - Round Rock","lat":30.5612431,"lon":-97.693081,"city":"Round Rock, TX","court_count":8,"access":"fee","surface":"perm","description":"","geocoded":true},{"name":"The Picklr - San Antonio","lat":29.594336,"lon":-98.4708562,"city":"San Antonio, TX","court_count":9,"access":"fee","surface":"perm","description":"","geocoded":true},{"name":"The Picklr - The Woodlands","lat":30.21507,"lon":-95.4574,"city":"The Woodlands, TX","court_count":21,"access":"fee","surface":"perm","description":"","geocoded":true},{"name":"The Picklr - Waco","lat":31.5251453,"lon":-97.1711771,"city":"Waco, TX","court_count":0,"access":"fee","surface":"perm","description":"","geocoded":true},{"name":"The Picklr - West Fort Worth","lat":32.7414942,"lon":-97.4516411,"city":"White Settlement, TX","court_count":10,"access":"fee","surface":"perm","description":"","geocoded":true},{"name":"The Picklr - Bluffdale","lat":40.51398,"lon":-112.03291,"city":"Herriman, UT","court_count":10,"access":"fee","surface":"perm","description":"","geocoded":true},{"name":"The Picklr - Kaysville","lat":41.02141,"lon":-111.947,"city":"Kaysville, UT","court_count":15,"access":"fee","surface":"perm","description":"","geocoded":true},{"name":"The Picklr - Lehi","lat":40.3505475,"lon":-111.9036927,"city":"Saratoga Springs, UT","court_count":13,"access":"fee","surface":"perm","description":"","geocoded":true},{"name":"The Picklr - Logan","lat":41.7621013,"lon":-111.8322916,"city":"Logan, UT","court_count":9,"access":"fee","surface":"perm","description":"","geocoded":true},{"name":"The Picklr - Salt Lake City","lat":40.7014999,"lon":-111.8574041,"city":"Salt Lake City, UT","court_count":8,"access":"fee","surface":"perm","description":"","geocoded":true},{"name":"The Picklr - Sandy","lat":40.593983,"lon":-111.8319833,"city":"Sandy, UT","court_count":8,"access":"fee","surface":"perm","description":"","geocoded":true},{"name":"The Picklr - St. George","lat":37.1096676,"lon":-113.5580725,"city":"St. George, UT","court_count":8,"access":"fee","surface":"perm","description":"","geocoded":true},{"name":"The Picklr - Uintah","lat":41.1388707,"lon":-111.9192763,"city":"Uintah, UT","court_count":0,"access":"fee","surface":"perm","description":"","geocoded":true},{"name":"The Picklr - Nashville South","lat":36.1018133,"lon":-86.7562079,"city":"Nashville, TN","court_count":14,"access":"fee","surface":"perm","description":"","geocoded":true},{"name":"The Picklr - West Nashville","lat":36.1643693,"lon":-86.8669612,"city":"Nashville, TN","court_count":15,"access":"fee","surface":"perm","description":"","geocoded":true},{"name":"The Picklr - Centereach","lat":40.860859,"lon":-73.0827944,"city":"Centereach, NY","court_count":11,"access":"fee","surface":"perm","description":"","geocoded":true},{"name":"The Picklr - Commack","lat":40.8383616,"lon":-73.3184106,"city":"East Northport, NY","court_count":0,"access":"fee","surface":"perm","description":"","geocoded":true},{"name":"The Picklr - Scarsdale","lat":40.9893382,"lon":-73.8243781,"city":"Scarsdale, NY","court_count":8,"access":"fee","surface":"perm","description":"","geocoded":true},{"name":"The Picklr - Greenville","lat":34.8697062,"lon":-82.3546804,"city":"Greenville, SC","court_count":8,"access":"fee","surface":"perm","description":"","geocoded":true},{"name":"The Picklr - Exton","lat":40.0292786,"lon":-75.6348116,"city":"Exton, PA","court_count":10,"access":"fee","surface":"perm","description":"","geocoded":true},{"name":"The Picklr - Newtown","lat":40.2343683,"lon":-74.948369,"city":"Newtown, PA","court_count":11,"access":"fee","surface":"perm","description":"","geocoded":true},{"name":"The Picklr - State College","lat":40.8344635,"lon":-77.8041414,"city":"State College, PA","court_count":9,"access":"fee","surface":"perm","description":"","geocoded":true},{"name":"The Picklr - Greensboro","lat":36.1123779,"lon":-79.8766484,"city":"Greensboro, NC","court_count":12,"access":"fee","surface":"perm","description":"","geocoded":true},{"name":"The Picklr - Albuquerque West","lat":35.1946707,"lon":-106.6557268,"city":"Albuquerque, NM","court_count":0,"access":"fee","surface":"perm","description":"","geocoded":true},{"name":"The Picklr - East Brunswick","lat":40.41631,"lon":-74.37084,"city":"East Brunswick, NJ","court_count":0,"access":"fee","surface":"perm","description":"","geocoded":true},{"name":"The Picklr - Fair Lawn","lat":40.9407163,"lon":-74.1222238,"city":"Fair Lawn, NJ","court_count":12,"access":"fee","surface":"perm","description":"","geocoded":true},{"name":"The Picklr - Manahawkin-LBI","lat":39.6954,"lon":-74.25875,"city":"Manahawkin, NJ","court_count":7,"access":"fee","surface":"perm","description":"","geocoded":true},{"name":"Chicken N Pickle - Henderson","lat":36.0044194,"lon":-115.1183892,"city":"Henderson, NV","court_count":0,"access":"fee","surface":"perm","description":"","geocoded":true},{"name":"Chicken N Pickle - Thornton","lat":39.9552278,"lon":-104.9856781,"city":"Thornton, CO","court_count":0,"access":"fee","surface":"perm","description":"","geocoded":true},{"name":"Chicken N Pickle - Webster","lat":29.5144387,"lon":-95.1179533,"city":"Webster, TX","court_count":0,"access":"fee","surface":"perm","description":"","geocoded":true},{"name":"Chicken N Pickle - Allen","lat":33.1324736,"lon":-96.7039159,"city":"Allen, TX","court_count":0,"access":"fee","surface":"perm","description":"","geocoded":true},{"name":"Chicken N Pickle - St. Charles","lat":38.7645589,"lon":-90.491587,"city":"St. Charles, MO","court_count":0,"access":"fee","surface":"perm","description":"","geocoded":true},{"name":"Chicken N Pickle - Glendale","lat":33.535425,"lon":-112.2596971,"city":"Glendale, AZ","court_count":0,"access":"fee","surface":"perm","description":"","geocoded":true},{"name":"Chicken N Pickle - Grapevine","lat":32.8868097,"lon":-97.09788,"city":"Grapevine, TX","court_count":0,"access":"fee","surface":"perm","description":"","geocoded":true},{"name":"Chicken N Pickle - Grand Prairie","lat":32.7008191,"lon":-97.0241615,"city":"Grand Prairie, TX","court_count":0,"access":"fee","surface":"perm","description":"","geocoded":true},{"name":"Chicken N Pickle - Overland Park","lat":38.8831682,"lon":-94.654476,"city":"Overland Park, KS","court_count":0,"access":"fee","surface":"perm","description":"","geocoded":true},{"name":"Chicken N Pickle - Oklahoma City","lat":35.5851812,"lon":-97.5090899,"city":"Oklahoma City, OK","court_count":0,"access":"fee","surface":"perm","description":"","geocoded":true},{"name":"Chicken N Pickle - San Antonio","lat":29.578709,"lon":-98.5894898,"city":"San Antonio, TX","court_count":0,"access":"fee","surface":"perm","description":"","geocoded":true},{"name":"Chicken N Pickle - Wichita","lat":37.7066035,"lon":-97.2061387,"city":"Wichita, KS","court_count":0,"access":"fee","surface":"perm","description":"","geocoded":true},{"name":"Chicken N Pickle - Kansas City","lat":39.1397371,"lon":-94.5806441,"city":"North Kansas City, MO","court_count":0,"access":"fee","surface":"perm","description":"","geocoded":true},{"name":"Naples Pickleball Center","lat":26.109181,"lon":-81.7518347,"city":"Naples, FL","court_count":0,"access":"public","surface":"perm","description":"","geocoded":true},{"name":"The Fort","lat":26.0816949,"lon":-80.1524957,"city":"Fort Lauderdale, FL","court_count":0,"access":"public","surface":"perm","description":"","geocoded":true},{"name":"Pictona at Holly Hill","lat":29.2442705,"lon":-81.04189,"city":"Holly Hill, FL","court_count":0,"access":"public","surface":"perm","description":"","geocoded":true},{"name":"East Naples Community Park","lat":26.109181,"lon":-81.7518347,"city":"Naples, FL","court_count":0,"access":"public","surface":"perm","description":"","geocoded":true},{"name":"The Villages Pickleball","lat":28.9269978,"lon":-82.0041758,"city":"The Villages, FL","court_count":0,"access":"public","surface":"perm","description":"","geocoded":true},{"name":"Austin Pickle Ranch","lat":30.373742,"lon":-97.679132,"city":"Austin, TX","court_count":0,"access":"public","surface":"perm","description":"","geocoded":true},{"name":"The Pickle Lodge","lat":39.352825,"lon":-84.3732096,"city":"West Chester, OH","court_count":0,"access":"public","surface":"perm","description":"","geocoded":true},{"name":"Mesa Riverview Pickleball Courts","lat":33.4355884,"lon":-111.8651039,"city":"Mesa, AZ","court_count":0,"access":"public","surface":"perm","description":"","geocoded":true},{"name":"Surprise Pickleball Courts","lat":33.6309715,"lon":-112.3707497,"city":"Surprise, AZ","court_count":0,"access":"public","surface":"perm","description":"","geocoded":true},{"name":"Arizona Athletic Grounds","lat":33.3001654,"lon":-111.6288403,"city":"Mesa, AZ","court_count":0,"access":"fee","surface":"perm","description":"","geocoded":true},{"name":"Bobby Riggs Racket & Paddle","lat":33.0359881,"lon":-117.2733931,"city":"Encinitas, CA","court_count":0,"access":"fee","surface":"perm","description":"","geocoded":true},{"name":"Palmetto Dunes Pickleball Center","lat":32.1694511,"lon":-80.7199396,"city":"Hilton Head Island, SC","court_count":0,"access":"fee","surface":"perm","description":"","geocoded":true},{"name":"Sea Pines Racquet Club","lat":32.1361539,"lon":-80.8125847,"city":"Hilton Head Island, SC","court_count":0,"access":"fee","surface":"perm","description":"","geocoded":true},{"name":"Delray Beach Tennis & Pickleball Center","lat":26.4617072,"lon":-80.0754561,"city":"Delray Beach, FL","court_count":0,"access":"public","surface":"perm","description":"","geocoded":true},{"name":"Clearwater Pickleball Complex","lat":27.9819344,"lon":-82.7419132,"city":"Clearwater, FL","court_count":0,"access":"public","surface":"perm","description":"","geocoded":true},{"name":"Palm Creek Pickleball Resort","lat":32.8878127,"lon":-111.700617,"city":"Casa Grande, AZ","court_count":0,"access":"fee","surface":"perm","description":"","geocoded":true},{"name":"CityPickle Wollman Rink","lat":40.7677164,"lon":-73.974467,"city":"New York, NY","court_count":0,"access":"fee","surface":"perm","description":"","geocoded":true},{"name":"Smash Park West Des Moines","lat":41.5655847,"lon":-93.7970302,"city":"West Des Moines, IA","court_count":0,"access":"fee","surface":"perm","description":"","geocoded":true},{"name":"Life Time Frisco","lat":33.1354087,"lon":-96.8365984,"city":"Frisco, TX","court_count":0,"access":"fee","surface":"perm","description":"","geocoded":true}]