[{"name":"Riverside Courts","lat":30.2638,"lon":-97.7283,"city":"Austin","court_count":6,"access":"public","surface":"","description":""},{"name":"Barton Springs Pickleball","lat":30.2625,"lon":-97.7631,"city":"Austin","court_count":4,"access":"public","surface":"","description":""},{"name":"South Austin Rec Center","lat":30.2312,"lon":-97.7754,"city":"Austin","court_count":8,"access":"public","surface":"","description":""},{"name":"Disch-Falk Courts","lat":30.2849,"lon":-97.7341,"city":"Austin","court_count":4,"access":"public","surface":"","description":""},{"name":"Zero Zero Two","lat":33.9425,"lon":-118.4081,"city":"Los Angeles, CA","court_count":17,"access":"fee","surface":"perm","description":"Popular · Perm. Nets"},{"name":"Pickleball Playground","lat":41.8836,"lon":-87.6272,"city":"Chicago, IL","court_count":26,"access":"fee","surface":"perm","description":"Popular · Perm. Nets"},{"name":"Bobby Riggs Racket & Paddle","lat":33.0369,"lon":-117.2919,"city":"Encinitas, CA","court_count":22,"access":"fee","surface":"perm","description":"Popular · Perm. Nets"},{"name":"OneMore Pickleball Club","lat":39.7392,"lon":-104.9903,"city":"Denver, CO","court_count":4,"access":"members","surface":"perm","description":"Popular · Perm. Nets"},{"name":"Fair Expo Pickleball","lat":45.5978,"lon":-122.6879,"city":"Portland, OR","court_count":14,"access":"members","surface":"perm","description":"Popular · Perm. Nets"},{"name":"East Lake Woodlands Country Club","lat":28.0545,"lon":-82.6639,"city":"Oldsmar, FL","court_count":12,"access":"members","surface":"perm","description":"Popular · Perm. Nets"},{"name":"The Picklr - Tempe","lat":33.4255,"lon":-111.94,"city":"Tempe, AZ","court_count":8,"access":"members","surface":"perm","description":"Popular · Perm. Nets"},{"name":"The Picklr - Sandy","lat":40.5925,"lon":-111.8838,"city":"Sandy, UT","court_count":8,"access":"members","surface":"perm","description":"Popular · Perm. Nets"},{"name":"Erie Canal Pickleball Center","lat":43.2128,"lon":-75.4557,"city":"Rome, NY","court_count":9,"access":"fee","surface":"perm","description":"Popular · Perm. Nets"},{"name":"The Paseo Club","lat":34.4482,"lon":-118.5681,"city":"Valencia, CA","court_count":11,"access":"members","surface":"perm","description":"Popular · Perm. Nets"},{"name":"PowerPlay Pickleball","lat":32.9177,"lon":-96.9688,"city":"Carrollton, TX","court_count":9,"access":"fee","surface":"perm","description":"Popular · Perm. Nets"},{"name":"Chicken N Pickle - San Antonio","lat":29.5563,"lon":-98.4716,"city":"San Antonio, TX","court_count":10,"access":"fee","surface":"perm","description":"Popular · Perm. Nets"},{"name":"SPF All Day","lat":41.8948,"lon":-87.6386,"city":"Chicago, IL","court_count":6,"access":"fee","surface":"perm","description":"Popular · Perm. Nets"},{"name":"Pickledilly Skokie","lat":42.0334,"lon":-87.7334,"city":"Skokie, IL","court_count":11,"access":"members","surface":"perm","description":"Popular · Perm. Nets"},{"name":"The Gym Cape Carteret Aquatic & Wellness","lat":34.6987,"lon":-76.996,"city":"Cape Carteret, NC","court_count":7,"access":"members","surface":"perm","description":"Popular · Perm. Nets"},{"name":"The Picklr - Kaysville","lat":41.0347,"lon":-111.9378,"city":"Kaysville, UT","court_count":15,"access":"members","surface":"perm","description":"Popular · Perm. Nets"},{"name":"Dill Dinkers West End","lat":33.493,"lon":-86.852,"city":"Birmingham, AL","court_count":11,"access":"fee","surface":"perm","description":"Popular · Perm. Nets"},{"name":"The Sport House","lat":44.9778,"lon":-93.265,"city":"Minneapolis, MN","court_count":4,"access":"members","surface":"perm","description":"Popular · Perm. Nets"},{"name":"SPF Lincoln Park","lat":41.9242,"lon":-87.6484,"city":"Chicago, IL","court_count":9,"access":"fee","surface":"perm","description":"Popular · Perm. Nets"},{"name":"Avon Lake Blesser Park","lat":41.5059,"lon":-82.0238,"city":"Avon Lake, OH","court_count":4,"access":"public","surface":"perm","description":"Perm. Nets"},{"name":"St. Charles Mesa Recreation Center","lat":38.2544,"lon":-104.6091,"city":"Pueblo, CO","court_count":3,"access":"public","surface":"tape","description":"Portable Nets"},{"name":"Oakton Swim & Racquet Club","lat":38.9018,"lon":-77.2951,"city":"Vienna, VA","court_count":4,"access":"members","surface":"perm","description":"Portable Nets"},{"name":"The Lodge at Leathem Smith","lat":44.8344,"lon":-87.3773,"city":"Sturgeon Bay, WI","court_count":4,"access":"fee","surface":"perm","description":"BYO Nets"},{"name":"Rushmore Shadows Resort","lat":44.0805,"lon":-103.231,"city":"Rapid City, SD","court_count":2,"access":"fee","surface":"perm","description":"BYO Nets"},{"name":"Sister Bay Sports Complex","lat":45.1898,"lon":-87.1197,"city":"Sister Bay, WI","court_count":4,"access":"public","surface":"perm","description":"BYO Nets"},{"name":"Winona Community Centre","lat":43.2225,"lon":-79.6234,"city":"Winona, ON","court_count":1,"access":"public","surface":"perm","description":"Portable Nets"},{"name":"Skehan Recreation Center","lat":44.9537,"lon":-93.09,"city":"St. Paul, MN","court_count":4,"access":"members","surface":"perm","description":"Portable Nets"},{"name":"Swift Park","lat":38.5816,"lon":-121.4944,"city":"Sacramento, CA","court_count":4,"access":"public","surface":"perm","description":"BYO Nets"},{"name":"Rappahannock County Park","lat":38.7184,"lon":-78.1578,"city":"Washington, VA","court_count":2,"access":"public","surface":"perm","description":"Portable Nets"},{"name":"Grayson County Recreation Park","lat":36.6379,"lon":-81.1498,"city":"Independence, VA","court_count":3,"access":"public","surface":"perm","description":"Portable Nets"},{"name":"Pheasant Meadows","lat":42.9634,"lon":-85.6681,"city":"Grand Rapids, MI","court_count":4,"access":"public","surface":"perm","description":"BYO Nets"},{"name":"Key Largo Community Park","lat":25.0865,"lon":-80.4473,"city":"Key Largo, FL","court_count":10,"access":"public","surface":"perm","description":"Perm. Nets"},{"name":"Shaw Park","lat":38.6501,"lon":-90.3498,"city":"Clayton, MO","court_count":9,"access":"public","surface":"perm","description":"Perm. Nets"},{"name":"Peace Center","lat":34.8526,"lon":-82.394,"city":"Greenville, SC","court_count":3,"access":"members","surface":"perm","description":"Portable Nets"},{"name":"Mesa Marin Sports Complex","lat":33.4152,"lon":-111.8315,"city":"Mesa, AZ","court_count":1,"access":"public","surface":"perm","description":"Perm. Nets"},{"name":"Lancaster Loop Recreational Area","lat":40.0379,"lon":-76.3055,"city":"Lancaster, PA","court_count":6,"access":"public","surface":"perm","description":"Perm. Nets"},{"name":"Cooper Street Branch YMCA","lat":32.7555,"lon":-97.3308,"city":"Fort Worth, TX","court_count":2,"access":"members","surface":"perm","description":"Portable Nets"},{"name":"Glenville Senior Citizens Center","lat":41.0362,"lon":-73.654,"city":"Glenville, CT","court_count":2,"access":"members","surface":"perm","description":"BYO Nets"},{"name":"Schooley Mill Park","lat":39.1748,"lon":-76.948,"city":"Highland, MD","court_count":8,"access":"public","surface":"perm","description":"BYO Nets"},{"name":"Mason Park","lat":29.704,"lon":-95.4328,"city":"Houston, TX","court_count":2,"access":"public","surface":"perm","description":"BYO Nets"},{"name":"The Sports Club of Novi","lat":42.4808,"lon":-83.4755,"city":"Novi, MI","court_count":2,"access":"members","surface":"perm","description":"Portable Nets"},{"name":"Lake Wilderness Park","lat":47.3873,"lon":-122.053,"city":"Maple Valley, WA","court_count":4,"access":"public","surface":"perm","description":"Perm. Nets"},{"name":"Earl Bales Community Centre","lat":43.7592,"lon":-79.4281,"city":"Toronto, ON","court_count":3,"access":"public","surface":"perm","description":"Portable Nets"},{"name":"Armistead Gardens Elementary School","lat":39.3365,"lon":-76.5355,"city":"Baltimore, MD","court_count":2,"access":"public","surface":"perm","description":"Portable Nets"},{"name":"H. V. Griffin Park","lat":33.4735,"lon":-82.0105,"city":"Augusta, GA","court_count":6,"access":"fee","surface":"perm","description":"BYO Nets"},{"name":"Glades Town Park","lat":26.3683,"lon":-80.1289,"city":"Boca Raton, FL","court_count":2,"access":"public","surface":"perm","description":"BYO Nets"},{"name":"Milestone Park Playground","lat":35.2271,"lon":-80.8431,"city":"Charlotte, NC","court_count":2,"access":"public","surface":"perm","description":"Tennis Nets"},{"name":"High River Pickleball Club","lat":50.5808,"lon":-113.8748,"city":"High River, AB","court_count":6,"access":"fee","surface":"perm","description":"Portable Nets"},{"name":"Gihon Spring Park","lat":44.4759,"lon":-73.2121,"city":"Burlington, VT","court_count":1,"access":"public","surface":"perm","description":"Tennis Nets"},{"name":"Davis Park","lat":35.7796,"lon":-78.6382,"city":"Raleigh, NC","court_count":2,"access":"public","surface":"perm","description":"Perm. Nets"},{"name":"Thornblade Country Club","lat":34.9348,"lon":-82.2026,"city":"Greer, SC","court_count":6,"access":"members","surface":"perm","description":"Perm. Nets"},{"name":"Starvaggi Park","lat":40.3698,"lon":-80.634,"city":"Steubenville, OH","court_count":4,"access":"public","surface":"perm","description":"Portable Nets"},{"name":"Wilson Ranch Park","lat":36.2197,"lon":-115.2398,"city":"Las Vegas, NV","court_count":2,"access":"public","surface":"perm","description":"Tennis Nets"},{"name":"YYC Active Facility","lat":51.0447,"lon":-114.0719,"city":"Calgary, AB","court_count":3,"access":"fee","surface":"perm","description":"Portable Nets"},{"name":"Huffman ISD Hargrave High School","lat":29.9193,"lon":-95.0838,"city":"Huffman, TX","court_count":6,"access":"members","surface":"perm","description":"BYO Nets"},{"name":"Westfort Playfield","lat":48.3809,"lon":-89.2477,"city":"Thunder Bay, ON","court_count":3,"access":"public","surface":"perm","description":"Tennis Nets"},{"name":"Cole Park","lat":29.52,"lon":-98.48,"city":"San Antonio, TX","court_count":2,"access":"public","surface":"perm","description":"Perm. Nets"},{"name":"Unico Building Mitteneauge Park","lat":42.1017,"lon":-72.6551,"city":"West Springfield, MA","court_count":2,"access":"fee","surface":"perm","description":"Portable Nets"},{"name":"Garfield Community Center","lat":40.4617,"lon":-79.9239,"city":"Pittsburgh, PA","court_count":2,"access":"public","surface":"perm","description":"BYO Nets"},{"name":"The Picklr - Spanish Fork","lat":40.115,"lon":-111.6549,"city":"Spanish Fork, UT","court_count":11,"access":"members","surface":"perm","description":"Perm. Nets"},{"name":"Smash Club","lat":47.6062,"lon":-122.3321,"city":"Seattle, WA","court_count":2,"access":"public","surface":"perm","description":"Perm. Nets"},{"name":"Clock Tower Pickleball","lat":33.4484,"lon":-112.074,"city":"Phoenix, AZ","court_count":4,"access":"public","surface":"perm","description":"Perm. Nets"},{"name":"The Dill Pickleball Club","lat":39.75,"lon":-104.98,"city":"Denver, CO","court_count":5,"access":"members","surface":"perm","description":"Perm. Nets"},{"name":"North Natomas Community Park","lat":38.6757,"lon":-121.488,"city":"Sacramento, CA","court_count":2,"access":"public","surface":"perm","description":"Tennis Nets"},{"name":"Complejo Deportivo de Rincón","lat":18.3399,"lon":-67.2507,"city":"Rincón, PR","court_count":4,"access":"public","surface":"perm","description":"Perm. Nets"},{"name":"Jumbo's - Portland","lat":45.5051,"lon":-122.675,"city":"Portland, OR","court_count":8,"access":"members","surface":"perm","description":"Perm. Nets"},{"name":"Los Banos Community Center","lat":36.606,"lon":-120.8497,"city":"Los Banos, CA","court_count":2,"access":"public","surface":"perm","description":"BYO Nets"},{"name":"Langham Creek Family YMCA","lat":29.8336,"lon":-95.6574,"city":"Houston, TX","court_count":8,"access":"members","surface":"perm","description":"Perm. Nets"},{"name":"Newcastle Park","lat":47.5301,"lon":-122.1584,"city":"Newcastle, WA","court_count":4,"access":"public","surface":"perm","description":"Perm. Nets"},{"name":"Leo Adams Middle School","lat":37.6391,"lon":-120.9969,"city":"Modesto, CA","court_count":8,"access":"public","surface":"byo","description":"BYO Nets"},{"name":"Caughlin Athletic Club","lat":39.5296,"lon":-119.8138,"city":"Reno, NV","court_count":8,"access":"members","surface":"perm","description":"Perm. Nets"},{"name":"Peggy Hill Team Community Centre","lat":44.3894,"lon":-79.6903,"city":"Barrie, ON","court_count":6,"access":"public","surface":"perm","description":"Portable Nets"},{"name":"Berkeley Heights YMCA","lat":40.6854,"lon":-74.4432,"city":"Berkeley Heights, NJ","court_count":3,"access":"members","surface":"tape","description":"Portable Nets"},{"name":"Art Ohlgren Recreational Area","lat":46.7867,"lon":-92.1005,"city":"Duluth, MN","court_count":4,"access":"public","surface":"perm","description":"Perm. Nets"},{"name":"Oats Park","lat":39.4735,"lon":-118.7774,"city":"Fallon, NV","court_count":6,"access":"public","surface":"perm","description":"Perm. Nets"},{"name":"Gillies Bay","lat":49.703,"lon":-124.5157,"city":"Gillies Bay, BC","court_count":2,"access":"public","surface":"perm","description":"Tennis Nets"},{"name":"DeForest Park","lat":33.8672,"lon":-118.1527,"city":"Long Beach, CA","court_count":8,"access":"public","surface":"perm","description":"Perm. Nets"},{"name":"Vegreville Centennial Library Gymnasium","lat":53.4987,"lon":-112.0473,"city":"Vegreville, AB","court_count":3,"access":"fee","surface":"perm","description":"Portable Nets"},{"name":"Springhead Park","lat":30.3322,"lon":-81.6557,"city":"Jacksonville, FL","court_count":4,"access":"public","surface":"perm","description":"Perm. Nets"},{"name":"Oregon Courts","lat":44.0521,"lon":-123.0868,"city":"Eugene, OR","court_count":4,"access":"public","surface":"perm","description":"Perm. Nets"},{"name":"Greystone YMCA","lat":33.3883,"lon":-86.8097,"city":"Hoover, AL","court_count":2,"access":"members","surface":"perm","description":"Portable Nets"},{"name":"Pickleball Backyard","lat":30.32,"lon":-97.75,"city":"Austin, TX","court_count":6,"access":"members","surface":"perm","description":"Perm. Nets"},{"name":"Burdette Park","lat":37.9716,"lon":-87.5711,"city":"Evansville, IN","court_count":6,"access":"public","surface":"perm","description":"Perm. Nets"},{"name":"Palmer Park","lat":42.3791,"lon":-83.0798,"city":"Detroit, MI","court_count":6,"access":"public","surface":"perm","description":"Perm. Nets"},{"name":"Oak Ridge Broadway Tennis Courts","lat":36.0104,"lon":-84.2696,"city":"Oak Ridge, TN","court_count":8,"access":"public","surface":"perm","description":"Tennis Nets"},{"name":"Cottage Hill Baptist Church","lat":30.7178,"lon":-88.173,"city":"Mobile, AL","court_count":2,"access":"members","surface":"perm","description":"Portable Nets"},{"name":"Eglinton Flats Tennis Centre","lat":43.7055,"lon":-79.4626,"city":"Toronto, ON","court_count":3,"access":"members","surface":"perm","description":"Tennis Nets"},{"name":"Sports Activity Center","lat":39.7684,"lon":-86.1581,"city":"Indianapolis, IN","court_count":3,"access":"fee","surface":"perm","description":"Portable Nets"},{"name":"OLD Prosser High School","lat":46.2054,"lon":-119.766,"city":"Prosser, WA","court_count":6,"access":"public","surface":"perm","description":"Perm. Nets"},{"name":"Mendon Ponds Park","lat":43.0445,"lon":-77.5649,"city":"Mendon, NY","court_count":4,"access":"public","surface":"perm","description":"Perm. Nets"},{"name":"Complexe multisports Desjardins","lat":46.8139,"lon":-71.175,"city":"Lévis, QC","court_count":3,"access":"fee","surface":"perm","description":"Portable Nets"},{"name":"Clinton County YMCA","lat":44.6995,"lon":-73.4529,"city":"Plattsburgh, NY","court_count":2,"access":"members","surface":"perm","description":"Portable Nets"},{"name":"Pickle in the Park","lat":45.52,"lon":-122.64,"city":"Portland, OR","court_count":6,"access":"fee","surface":"perm","description":"Portable Nets"},{"name":"Ralph Hines Memorial Park","lat":32.3617,"lon":-86.2792,"city":"Montgomery, AL","court_count":2,"access":"public","surface":"perm","description":"BYO Nets"},{"name":"Brockway Basketball & Pickleball","lat":27.7731,"lon":-82.64,"city":"St. Petersburg, FL","court_count":2,"access":"public","surface":"perm","description":"Portable Nets"},{"name":"Eleanor Pickleball Courts","lat":38.5373,"lon":-81.9315,"city":"Eleanor, WV","court_count":2,"access":"public","surface":"perm","description":"Perm. Nets"},{"name":"Lake Lynn Community Center","lat":35.8762,"lon":-78.7347,"city":"Raleigh, NC","court_count":6,"access":"members","surface":"perm","description":"Portable Nets"},{"name":"Heflin Recreation Center","lat":33.6476,"lon":-85.5905,"city":"Heflin, AL","court_count":2,"access":"public","surface":"perm","description":"Portable Nets"},{"name":"Middleton Middle School Tennis Courts","lat":43.0977,"lon":-89.5043,"city":"Middleton, WI","court_count":2,"access":"public","surface":"perm","description":"Tennis Nets"},{"name":"YMCA of Lunenburg County","lat":36.9932,"lon":-78.2233,"city":"Victoria, VA","court_count":2,"access":"members","surface":"perm","description":"Portable Nets"},{"name":"Austin Tennis and Pickleball Center","lat":30.272,"lon":-97.658,"city":"Austin, TX","court_count":8,"access":"fee","surface":"","description":""},{"name":"Austin Pickle Ranch - Braker Lane","lat":30.371,"lon":-97.69,"city":"Austin, TX","court_count":16,"access":"fee","surface":"","description":""},{"name":"Pickleland","lat":30.466,"lon":-97.62,"city":"Pflugerville, TX","court_count":9,"access":"fee","surface":"","description":""},{"name":"Eastside Paddle Club","lat":30.265,"lon":-97.708,"city":"Austin, TX","court_count":10,"access":"fee","surface":"","description":""},{"name":"The Picklr Austin West","lat":30.278,"lon":-97.861,"city":"Austin, TX","court_count":11,"access":"members","surface":"","description":""},{"name":"The Picklr Oak Hill","lat":30.228,"lon":-97.889,"city":"Austin, TX","court_count":8,"access":"members","surface":"","description":""},{"name":"The Picklr Round Rock","lat":30.508,"lon":-97.678,"city":"Round Rock, TX","court_count":8,"access":"members","surface":"","description":""},{"name":"Barnes Tennis Center","lat":32.746,"lon":-117.23,"city":"San Diego, CA","court_count":24,"access":"fee","surface":"","description":""},{"name":"The Hub Pickleball San Diego","lat":32.74,"lon":-116.988,"city":"Spring Valley, CA","court_count":26,"access":"fee","surface":"","description":""},{"name":"Balboa Park Activity Center","lat":32.73,"lon":-117.149,"city":"San Diego, CA","court_count":5,"access":"public","surface":"","description":""},{"name":"San Diego Mission Bay Resort","lat":32.778,"lon":-117.207,"city":"San Diego, CA","court_count":8,"access":"fee","surface":"","description":""},{"name":"Arizona Athletic Grounds (Picklemall)","lat":33.379,"lon":-111.593,"city":"Mesa, AZ","court_count":41,"access":"fee","surface":"","description":""},{"name":"Pickleball Kingdom Chandler","lat":33.306,"lon":-111.921,"city":"Chandler, AZ","court_count":15,"access":"members","surface":"","description":""},{"name":"Center Court Pickleball Club","lat":33.672,"lon":-111.956,"city":"Phoenix, AZ","court_count":12,"access":"members","surface":"","description":""},{"name":"Tempe Sports Complex","lat":33.319,"lon":-111.91,"city":"Tempe, AZ","court_count":16,"access":"public","surface":"","description":""},{"name":"Horizon Park","lat":33.637,"lon":-111.886,"city":"Scottsdale, AZ","court_count":10,"access":"public","surface":"","description":""},{"name":"Scottsdale Ranch Park","lat":33.477,"lon":-111.919,"city":"Scottsdale, AZ","court_count":12,"access":"public","surface":"","description":""},{"name":"Mesa Tennis & Pickleball Center at Gene Autry Park","lat":33.453,"lon":-111.747,"city":"Mesa, AZ","court_count":21,"access":"fee","surface":"","description":""},{"name":"The Picklr Scottsdale North","lat":33.681,"lon":-111.925,"city":"Scottsdale, AZ","court_count":10,"access":"members","surface":"","description":""},{"name":"Freestone Recreation Center","lat":33.35,"lon":-111.787,"city":"Gilbert, AZ","court_count":2,"access":"fee","surface":"","description":""},{"name":"Ace Pickleball Club Tucson","lat":32.313,"lon":-110.974,"city":"Tucson, AZ","court_count":13,"access":"members","surface":"","description":""},{"name":"Morris K. Udall Park","lat":32.254,"lon":-110.859,"city":"Tucson, AZ","court_count":18,"access":"public","surface":"","description":""},{"name":"The Picklr Cherry Creek South","lat":39.675,"lon":-104.901,"city":"Denver, CO","court_count":11,"access":"members","surface":"","description":""},{"name":"Ace Pickleball Club Aurora","lat":39.629,"lon":-104.74,"city":"Aurora, CO","court_count":9,"access":"members","surface":"","description":""},{"name":"Eisenhower Recreation Center","lat":39.74,"lon":-104.92,"city":"Denver, CO","court_count":7,"access":"fee","surface":"","description":""},{"name":"Green Mountain Recreation Center","lat":39.7,"lon":-105.13,"city":"Denver, CO","court_count":8,"access":"fee","surface":"","description":""},{"name":"Martin Luther King Jr. Recreation Center","lat":39.78,"lon":-104.901,"city":"Denver, CO","court_count":7,"access":"fee","surface":"","description":""},{"name":"Zero-Zero-Two Pickleball LLC","lat":44.797,"lon":-106.956,"city":"Sheridan, WY","court_count":6,"access":"fee","surface":"","description":""},{"name":"Centennial Sportsplex","lat":36.158,"lon":-86.819,"city":"Nashville, TN","court_count":12,"access":"fee","surface":"","description":""},{"name":"Pickleball Kingdom Nashville North","lat":36.26,"lon":-86.77,"city":"Nashville, TN","court_count":14,"access":"members","surface":"","description":""},{"name":"Pickleball Kingdom Hendersonville","lat":36.302,"lon":-86.62,"city":"Hendersonville, TN","court_count":12,"access":"members","surface":"","description":""},{"name":"Richland Park","lat":36.152,"lon":-86.849,"city":"Nashville, TN","court_count":8,"access":"public","surface":"","description":""},{"name":"Shelby Park Community Center","lat":36.171,"lon":-86.732,"city":"Nashville, TN","court_count":6,"access":"public","surface":"","description":""},{"name":"Dinkville Under Broad","lat":36.16,"lon":-86.781,"city":"Nashville, TN","court_count":4,"access":"fee","surface":"","description":""},{"name":"Lower Woodland Park","lat":47.672,"lon":-122.342,"city":"Seattle, WA","court_count":12,"access":"public","surface":"","description":""},{"name":"Green Lake Park","lat":47.679,"lon":-122.33,"city":"Seattle, WA","court_count":6,"access":"public","surface":"","description":""},{"name":"Battle Point Park","lat":47.637,"lon":-122.546,"city":"Bainbridge Island, WA","court_count":6,"access":"public","surface":"","description":""},{"name":"Rally Pickleball Club Auburn","lat":47.307,"lon":-122.218,"city":"Auburn, WA","court_count":14,"access":"fee","surface":"","description":""},{"name":"Portland Tennis Center","lat":45.525,"lon":-122.649,"city":"Portland, OR","court_count":16,"access":"public","surface":"","description":""},{"name":"Gabriel Park","lat":45.482,"lon":-122.727,"city":"Portland, OR","court_count":6,"access":"public","surface":"","description":""},{"name":"Sellwood Park","lat":45.471,"lon":-122.661,"city":"Portland, OR","court_count":8,"access":"public","surface":"","description":""},{"name":"Jumbo's Pickleball Portland","lat":45.53,"lon":-122.649,"city":"Portland, OR","court_count":8,"access":"fee","surface":"","description":""},{"name":"Painted Pickle","lat":33.81,"lon":-84.373,"city":"Atlanta, GA","court_count":9,"access":"fee","surface":"","description":""},{"name":"Atlanta Pickleball Center","lat":33.794,"lon":-84.415,"city":"Atlanta, GA","court_count":10,"access":"fee","surface":"","description":""},{"name":"Dill Dinkers Atlanta","lat":33.76,"lon":-84.402,"city":"Atlanta, GA","court_count":6,"access":"fee","surface":"","description":""},{"name":"Ace Pickleball Club Roswell","lat":34.023,"lon":-84.361,"city":"Roswell, GA","court_count":14,"access":"members","surface":"","description":""},{"name":"Rhythm & Rally Sports & Events","lat":32.822,"lon":-83.632,"city":"Macon, GA","court_count":32,"access":"fee","surface":"","description":""},{"name":"DETA Pickleball Club","lat":25.731,"lon":-80.368,"city":"Miami, FL","court_count":17,"access":"fee","surface":"","description":""},{"name":"Flamingo Park Miami Beach","lat":25.786,"lon":-80.135,"city":"Miami Beach, FL","court_count":6,"access":"public","surface":"","description":""},{"name":"Sip & Pickle Wynwood","lat":25.803,"lon":-80.199,"city":"Miami, FL","court_count":5,"access":"fee","surface":"","description":""},{"name":"The Lab Pickleball","lat":25.897,"lon":-80.21,"city":"North Miami, FL","court_count":8,"access":"fee","surface":"","description":""},{"name":"East Naples Community Park (USOP National Pickleball Center)","lat":26.13,"lon":-81.747,"city":"Naples, FL","court_count":65,"access":"fee","surface":"","description":""},{"name":"Veterans Community Park","lat":26.186,"lon":-81.756,"city":"Naples, FL","court_count":14,"access":"public","surface":"","description":""},{"name":"The Fort Pickleball","lat":26.089,"lon":-80.176,"city":"Fort Lauderdale, FL","court_count":43,"access":"fee","surface":"","description":""},{"name":"Sugar Sand Park Field House","lat":26.354,"lon":-80.15,"city":"Boca Raton, FL","court_count":6,"access":"fee","surface":"","description":""},{"name":"Crescent Lake Park","lat":27.78,"lon":-82.666,"city":"St. Petersburg, FL","court_count":6,"access":"public","surface":"","description":""},{"name":"St. Pete Athletic Paddle & Social","lat":27.762,"lon":-82.683,"city":"St. Petersburg, FL","court_count":14,"access":"fee","surface":"","description":""},{"name":"McKay Pickleball Courts","lat":27.98,"lon":-82.828,"city":"Clearwater, FL","court_count":6,"access":"public","surface":"","description":""},{"name":"Pickleball Kingdom Pinellas Park","lat":27.842,"lon":-82.7,"city":"Pinellas Park, FL","court_count":14,"access":"members","surface":"","description":""},{"name":"PickleRage Jacksonville","lat":30.196,"lon":-81.556,"city":"Jacksonville, FL","court_count":9,"access":"fee","surface":"","description":""},{"name":"Colonial Oaks Park","lat":27.313,"lon":-82.479,"city":"Sarasota, FL","court_count":10,"access":"public","surface":"","description":""},{"name":"Longwood Park","lat":27.366,"lon":-82.531,"city":"Sarasota, FL","court_count":6,"access":"public","surface":"","description":""},{"name":"Dr. Phillips YMCA","lat":28.449,"lon":-81.476,"city":"Orlando, FL","court_count":3,"access":"members","surface":"","description":""},{"name":"Dallas Parks Pickleball Courts (multiple)","lat":32.776,"lon":-96.797,"city":"Dallas, TX","court_count":8,"access":"public","surface":"","description":""},{"name":"Preston Playhouse","lat":32.929,"lon":-96.802,"city":"Dallas, TX","court_count":9,"access":"fee","surface":"","description":""},{"name":"At Fault","lat":32.924,"lon":-96.894,"city":"Farmers Branch, TX","court_count":9,"access":"fee","surface":"","description":""},{"name":"The Sandy Pickle","lat":32.84,"lon":-96.779,"city":"Dallas, TX","court_count":6,"access":"fee","surface":"","description":""},{"name":"Oasis Pickleball Club","lat":32.932,"lon":-96.46,"city":"Rockwall, TX","court_count":42,"access":"fee","surface":"","description":""},{"name":"Pickleball Kingdom Plano","lat":33.029,"lon":-96.72,"city":"Plano, TX","court_count":15,"access":"members","surface":"","description":""},{"name":"The Picklr McKinney","lat":33.197,"lon":-96.64,"city":"McKinney, TX","court_count":9,"access":"members","surface":"","description":""},{"name":"The Picklr Lewisville","lat":33.046,"lon":-97.007,"city":"Lewisville, TX","court_count":9,"access":"members","surface":"","description":""},{"name":"The Picklr Hurst","lat":32.823,"lon":-97.185,"city":"Hurst, TX","court_count":12,"access":"members","surface":"","description":""},{"name":"The Picklr Arlington","lat":32.735,"lon":-97.108,"city":"Arlington, TX","court_count":13,"access":"members","surface":"","description":""},{"name":"The Picklr West Fort Worth","lat":32.744,"lon":-97.468,"city":"Fort Worth, TX","court_count":10,"access":"members","surface":"","description":""},{"name":"The Picklr Denton","lat":33.215,"lon":-97.133,"city":"Denton, TX","court_count":8,"access":"members","surface":"","description":""},{"name":"FieldhouseUSA Frisco","lat":33.156,"lon":-96.823,"city":"Frisco, TX","court_count":9,"access":"fee","surface":"","description":""},{"name":"Shawnee Trail Sports Complex","lat":33.171,"lon":-96.867,"city":"Frisco, TX","court_count":4,"access":"public","surface":"","description":""},{"name":"Elite Pickleball Club The Heights","lat":29.768,"lon":-95.381,"city":"Houston, TX","court_count":24,"access":"fee","surface":"","description":""},{"name":"Elite Pickleball Club Clear Lake","lat":29.584,"lon":-95.097,"city":"Houston, TX","court_count":14,"access":"fee","surface":"","description":""},{"name":"Drop Shots HTX","lat":29.791,"lon":-95.373,"city":"Houston, TX","court_count":6,"access":"fee","surface":"","description":""},{"name":"The Picklr The Woodlands","lat":30.178,"lon":-95.464,"city":"The Woodlands, TX","court_count":21,"access":"members","surface":"","description":""},{"name":"The Picklr Live Oak","lat":29.553,"lon":-98.344,"city":"Live Oak, TX","court_count":13,"access":"members","surface":"","description":""},{"name":"The Picklr San Antonio","lat":29.525,"lon":-98.427,"city":"San Antonio, TX","court_count":9,"access":"members","surface":"","description":""},{"name":"Chicken N Pickle San Antonio","lat":29.527,"lon":-98.523,"city":"San Antonio, TX","court_count":10,"access":"fee","surface":"","description":""},{"name":"Chicken N Pickle Grand Prairie","lat":32.749,"lon":-97.021,"city":"Grand Prairie, TX","court_count":11,"access":"fee","surface":"","description":""},{"name":"Chicken N Pickle Grapevine","lat":32.934,"lon":-97.078,"city":"Grapevine, TX","court_count":10,"access":"fee","surface":"","description":""},{"name":"Chicken N Pickle Webster","lat":29.534,"lon":-95.119,"city":"Webster, TX","court_count":10,"access":"fee","surface":"","description":""},{"name":"Chicken N Pickle Allen","lat":33.103,"lon":-96.672,"city":"Allen, TX","court_count":10,"access":"fee","surface":"","description":""},{"name":"The Picklr Pearland","lat":29.559,"lon":-95.286,"city":"Pearland, TX","court_count":8,"access":"members","surface":"","description":""},{"name":"The Picklr Cypress","lat":29.966,"lon":-95.699,"city":"Cypress, TX","court_count":6,"access":"members","surface":"","description":""},{"name":"SPF Pickleball Lincoln Park","lat":41.934,"lon":-87.659,"city":"Chicago, IL","court_count":9,"access":"fee","surface":"","description":""},{"name":"Big City Pickle Fulton Market","lat":41.886,"lon":-87.648,"city":"Chicago, IL","court_count":15,"access":"fee","surface":"","description":""},{"name":"Big City Pickle Gold Coast","lat":41.907,"lon":-87.635,"city":"Chicago, IL","court_count":8,"access":"fee","surface":"","description":""},{"name":"Big City Pickle South Loop","lat":41.862,"lon":-87.636,"city":"Chicago, IL","court_count":10,"access":"fee","surface":"","description":""},{"name":"Midtown Athletic Club Chicago","lat":41.939,"lon":-87.678,"city":"Chicago, IL","court_count":14,"access":"members","surface":"","description":""},{"name":"CityPickle Wollman Rink Central Park","lat":40.768,"lon":-73.976,"city":"New York, NY","court_count":14,"access":"fee","surface":"","description":""},{"name":"CityPickle Times Square","lat":40.758,"lon":-73.985,"city":"New York, NY","court_count":7,"access":"fee","surface":"","description":""},{"name":"PKLYN Pickleball Club","lat":40.678,"lon":-73.995,"city":"Brooklyn, NY","court_count":5,"access":"fee","surface":"","description":""},{"name":"Sunset Park Pickleball Complex","lat":36.059,"lon":-115.111,"city":"Las Vegas, NV","court_count":24,"access":"public","surface":"","description":""},{"name":"Chicken N Pickle Henderson","lat":36.012,"lon":-115.078,"city":"Henderson, NV","court_count":10,"access":"fee","surface":"","description":""},{"name":"Charlotte Pickleball Sharon Lakes","lat":35.12,"lon":-80.875,"city":"Charlotte, NC","court_count":16,"access":"fee","surface":"","description":""},{"name":"Pin Point Indoor Pickleball & Golf","lat":35.742,"lon":-78.644,"city":"Raleigh, NC","court_count":16,"access":"fee","surface":"","description":""},{"name":"Cary Tennis Park","lat":35.762,"lon":-78.839,"city":"Cary, NC","court_count":4,"access":"fee","surface":"","description":""},{"name":"Lucky Shots Pickleball Club Northeast Minneapolis","lat":44.996,"lon":-93.25,"city":"Minneapolis, MN","court_count":18,"access":"fee","surface":"","description":""},{"name":"Lucky Shots Le Dome Brooklyn Park","lat":45.094,"lon":-93.356,"city":"Brooklyn Park, MN","court_count":13,"access":"fee","surface":"","description":""},{"name":"Lake Nokomis Pickleball Courts","lat":44.914,"lon":-93.233,"city":"Minneapolis, MN","court_count":6,"access":"public","surface":"","description":""},{"name":"Club Pickleball USA Orem","lat":40.297,"lon":-111.694,"city":"Orem, UT","court_count":12,"access":"members","surface":"","description":""},{"name":"Club Pickleball USA Sandy","lat":40.578,"lon":-111.884,"city":"Sandy, UT","court_count":12,"access":"members","surface":"","description":""},{"name":"Club Pickleball USA Midvale","lat":40.612,"lon":-111.9,"city":"Midvale, UT","court_count":11,"access":"members","surface":"","description":""},{"name":"The Picklr Salt Lake City","lat":40.721,"lon":-111.859,"city":"Salt Lake City, UT","court_count":8,"access":"members","surface":"","description":""},{"name":"Hobble Creek Park","lat":43.617,"lon":-116.131,"city":"Boise, ID","court_count":12,"access":"public","surface":"","description":""},{"name":"The Flying Pickle","lat":43.617,"lon":-116.397,"city":"Meridian, ID","court_count":18,"access":"fee","surface":"","description":""},{"name":"S2 Pickleball","lat":43.583,"lon":-116.16,"city":"Boise, ID","court_count":9,"access":"fee","surface":"","description":""},{"name":"Turkey Thicket Recreation Center","lat":38.936,"lon":-76.979,"city":"Washington, DC","court_count":6,"access":"public","surface":"","description":""},{"name":"FDR Park","lat":39.904,"lon":-75.18,"city":"Philadelphia, PA","court_count":10,"access":"public","surface":"","description":""},{"name":"PickleBOS South Boston","lat":42.338,"lon":-71.054,"city":"Boston, MA","court_count":11,"access":"fee","surface":"","description":""},{"name":"PickleBOS Charlestown","lat":42.377,"lon":-71.059,"city":"Boston, MA","court_count":10,"access":"fee","surface":"","description":""},{"name":"Chicken N Pickle Overland Park","lat":38.898,"lon":-94.671,"city":"Overland Park, KS","court_count":10,"access":"fee","surface":"","description":""},{"name":"Chicken N Pickle Wichita","lat":37.731,"lon":-97.353,"city":"Wichita, KS","court_count":10,"access":"fee","surface":"","description":""},{"name":"Chicken N Pickle Kansas City","lat":39.132,"lon":-94.575,"city":"North Kansas City, MO","court_count":8,"access":"fee","surface":"","description":""},{"name":"Chicken N Pickle St. Charles","lat":38.784,"lon":-90.482,"city":"St. Charles, MO","court_count":10,"access":"fee","surface":"","description":""},{"name":"Chicken N Pickle Oklahoma City","lat":35.523,"lon":-97.615,"city":"Oklahoma City, OK","court_count":10,"access":"fee","surface":"","description":""},{"name":"Chicken N Pickle Thornton","lat":39.931,"lon":-104.994,"city":"Thornton, CO","court_count":10,"access":"fee","surface":"","description":""},{"name":"Chicken N Pickle Glendale","lat":33.538,"lon":-112.186,"city":"Glendale, AZ","court_count":10,"access":"fee","surface":"","description":""},{"name":"Pickleball Kingdom Walker LA","lat":30.485,"lon":-90.865,"city":"Walker, LA","court_count":16,"access":"members","surface":"","description":""},{"name":"Pickleball Kingdom Appleton","lat":44.262,"lon":-88.409,"city":"Appleton, WI","court_count":11,"access":"members","surface":"","description":""},{"name":"Pickleball Kingdom Hamilton NJ","lat":40.208,"lon":-74.706,"city":"Hamilton Township, NJ","court_count":14,"access":"members","surface":"","description":""},{"name":"Pickleball Kingdom Mount Pleasant SC","lat":32.828,"lon":-79.828,"city":"Mount Pleasant, SC","court_count":10,"access":"members","surface":"","description":""},{"name":"Dill Dinkers Rockville MD","lat":39.083,"lon":-77.153,"city":"Rockville, MD","court_count":6,"access":"fee","surface":"","description":""},{"name":"Dill Dinkers Columbia MD","lat":39.215,"lon":-76.861,"city":"Columbia, MD","court_count":6,"access":"fee","surface":"","description":""},{"name":"Dill Dinkers North Bethesda MD","lat":39.052,"lon":-77.118,"city":"North Bethesda, MD","court_count":6,"access":"fee","surface":"","description":""},{"name":"Dill Dinkers Chantilly VA","lat":38.889,"lon":-77.427,"city":"Chantilly, VA","court_count":6,"access":"fee","surface":"","description":""},{"name":"Dill Dinkers Manassas VA","lat":38.751,"lon":-77.475,"city":"Manassas, VA","court_count":6,"access":"fee","surface":"","description":""},{"name":"Dill Dinkers Hilton Head SC","lat":32.195,"lon":-80.74,"city":"Hilton Head Island, SC","court_count":6,"access":"fee","surface":"","description":""},{"name":"Dill Dinkers Satellite Beach FL","lat":28.179,"lon":-80.591,"city":"Satellite Beach, FL","court_count":6,"access":"fee","surface":"","description":""},{"name":"Angelo J. Rossi Playground","lat":37.778,"lon":-122.454,"city":"San Francisco, CA","court_count":9,"access":"public","surface":"","description":""},{"name":"Goldman Tennis Center","lat":37.769,"lon":-122.488,"city":"San Francisco, CA","court_count":5,"access":"public","surface":"","description":""},{"name":"Moscone Recreation Center","lat":37.762,"lon":-122.432,"city":"San Francisco, CA","court_count":6,"access":"public","surface":"","description":""},{"name":"Stern Grove","lat":37.737,"lon":-122.474,"city":"San Francisco, CA","court_count":6,"access":"public","surface":"","description":""},{"name":"Parkside Square","lat":37.727,"lon":-122.466,"city":"San Francisco, CA","court_count":8,"access":"public","surface":"","description":""},{"name":"Larsen Park","lat":37.764,"lon":-122.497,"city":"San Francisco, CA","court_count":8,"access":"public","surface":"","description":""},{"name":"Plummer Park West Hollywood","lat":34.09,"lon":-118.361,"city":"West Hollywood, CA","court_count":5,"access":"public","surface":"","description":""},{"name":"Santa Monica Pickleball Center","lat":34.019,"lon":-118.491,"city":"Santa Monica, CA","court_count":4,"access":"fee","surface":"","description":""},{"name":"Scholl Canyon Golf & Tennis Club","lat":34.18,"lon":-118.232,"city":"Glendale, CA","court_count":6,"access":"public","surface":"","description":""},{"name":"Creekside Park Brentwood","lat":34.066,"lon":-118.474,"city":"Los Angeles, CA","court_count":4,"access":"public","surface":"","description":""},{"name":"Pacific Beach Recreation Center","lat":32.798,"lon":-117.236,"city":"San Diego, CA","court_count":4,"access":"public","surface":"","description":""},{"name":"Carmel Valley Recreation Center","lat":32.938,"lon":-117.211,"city":"San Diego, CA","court_count":4,"access":"public","surface":"","description":""},{"name":"Tower Grove Park","lat":38.6,"lon":-90.26,"city":"St. Louis, MO","court_count":8,"access":"public","surface":"","description":""},{"name":"Tilles Park","lat":38.636,"lon":-90.37,"city":"St. Louis, MO","court_count":6,"access":"public","surface":"","description":""},{"name":"Pickleball Euphoria","lat":38.248,"lon":-85.712,"city":"Louisville, KY","court_count":10,"access":"fee","surface":"","description":""},{"name":"Cleveland Pickleball Center","lat":41.499,"lon":-81.694,"city":"Cleveland, OH","court_count":10,"access":"fee","surface":"","description":""},{"name":"YMCA Pickleball Center North Royalton","lat":41.314,"lon":-81.724,"city":"North Royalton, OH","court_count":4,"access":"members","surface":"","description":""},{"name":"Life Time Fitness Peachtree Corners","lat":33.965,"lon":-84.225,"city":"Peachtree Corners, GA","court_count":29,"access":"members","surface":"","description":""},{"name":"Life Time Fitness Castle Creek Indianapolis","lat":39.868,"lon":-86.048,"city":"Indianapolis, IN","court_count":6,"access":"members","surface":"","description":""},{"name":"Life Time Fitness Fort Worth","lat":32.852,"lon":-97.336,"city":"Fort Worth, TX","court_count":8,"access":"members","surface":"","description":""},{"name":"Life Time Pickleball Manhattan Penn 1","lat":40.75,"lon":-73.993,"city":"New York, NY","court_count":7,"access":"members","surface":"","description":""},{"name":"Life Time Fridley Minneapolis","lat":45.083,"lon":-93.266,"city":"Fridley, MN","court_count":7,"access":"members","surface":"","description":""},{"name":"Ace Pickleball Club Fort Myers","lat":26.637,"lon":-81.893,"city":"Fort Myers, FL","court_count":10,"access":"members","surface":"","description":""},{"name":"Ace Pickleball Club Grand Rapids","lat":42.845,"lon":-85.537,"city":"Grand Rapids, MI","court_count":13,"access":"members","surface":"","description":""},{"name":"Becker Park","lat":44.932,"lon":-93.302,"city":"Minneapolis, MN","court_count":8,"access":"public","surface":"","description":""},{"name":"Evergreen Park Minneapolis","lat":44.98,"lon":-93.32,"city":"Minneapolis, MN","court_count":6,"access":"public","surface":"","description":""},{"name":"Minneapolis Pickleball Club","lat":44.978,"lon":-93.265,"city":"Minneapolis, MN","court_count":7,"access":"members","surface":"","description":""},{"name":"Autrey Park Denver","lat":39.743,"lon":-104.953,"city":"Denver, CO","court_count":6,"access":"public","surface":"","description":""},{"name":"Flat Iron Mesa Park","lat":40.609,"lon":-111.939,"city":"West Jordan, UT","court_count":5,"access":"public","surface":"","description":""},{"name":"Southside Park Atlanta","lat":33.708,"lon":-84.414,"city":"Atlanta, GA","court_count":6,"access":"public","surface":"","description":""},{"name":"Adams Park Atlanta","lat":33.706,"lon":-84.437,"city":"Atlanta, GA","court_count":4,"access":"public","surface":"","description":""},{"name":"Peachtree Hills Park Atlanta","lat":33.844,"lon":-84.379,"city":"Atlanta, GA","court_count":6,"access":"public","surface":"","description":""},{"name":"Shana and Bryan Glazer JCC","lat":27.952,"lon":-82.474,"city":"Tampa, FL","court_count":2,"access":"members","surface":"","description":""},{"name":"Tampa Pickleball Crew","lat":27.984,"lon":-82.464,"city":"Tampa, FL","court_count":7,"access":"fee","surface":"","description":""},{"name":"Julian B. Lane Riverfront Park","lat":27.953,"lon":-82.463,"city":"Tampa, FL","court_count":8,"access":"public","surface":"","description":""},{"name":"SW19 Pickleball Kansas City","lat":38.897,"lon":-94.682,"city":"Overland Park, KS","court_count":9,"access":"fee","surface":"","description":""},{"name":"Meadowbrook Park Overland Park","lat":38.906,"lon":-94.657,"city":"Overland Park, KS","court_count":8,"access":"public","surface":"","description":""},{"name":"The Picklr Littleton CO","lat":39.614,"lon":-105.018,"city":"Littleton, CO","court_count":12,"access":"members","surface":"","description":""},{"name":"Lubber Run Community Center","lat":38.878,"lon":-77.098,"city":"Arlington, VA","court_count":8,"access":"fee","surface":"","description":""},{"name":"National Mall Pickleball","lat":38.89,"lon":-77.032,"city":"Washington, DC","court_count":6,"access":"public","surface":"","description":""},{"name":"Lakeshore Sport & Fitness Loop","lat":41.882,"lon":-87.633,"city":"Chicago, IL","court_count":4,"access":"members","surface":"","description":""},{"name":"Lakeshore Sport & Fitness Lincoln Park","lat":41.923,"lon":-87.637,"city":"Chicago, IL","court_count":6,"access":"members","surface":"","description":""},{"name":"Topspin Pickleball Club","lat":34.499,"lon":-85.843,"city":"Rainsville, AL","court_count":6,"access":"fee","surface":"","description":""},{"name":"Buena Vista Park","lat":37.769,"lon":-122.443,"city":"San Francisco, CA","court_count":4,"access":"public","surface":"","description":""},{"name":"Presidio Wall Courts","lat":37.79,"lon":-122.459,"city":"San Francisco, CA","court_count":6,"access":"public","surface":"","description":""},{"name":"Louis Sutter Playground","lat":37.715,"lon":-122.403,"city":"San Francisco, CA","court_count":6,"access":"public","surface":"","description":""},{"name":"Alta Plaza Park","lat":37.791,"lon":-122.437,"city":"San Francisco, CA","court_count":2,"access":"public","surface":"","description":""},{"name":"Walter Fuller Park","lat":27.79,"lon":-82.737,"city":"St. Petersburg, FL","court_count":4,"access":"public","surface":"","description":""},{"name":"Coquina Key Park","lat":27.748,"lon":-82.621,"city":"St. Petersburg, FL","court_count":6,"access":"public","surface":"","description":""},{"name":"East Portland Community Center","lat":45.517,"lon":-122.548,"city":"Portland, OR","court_count":4,"access":"fee","surface":"","description":""},{"name":"Southwest Community Center","lat":45.462,"lon":-122.707,"city":"Portland, OR","court_count":5,"access":"fee","surface":"","description":""},{"name":"Montavilla Community Center","lat":45.516,"lon":-122.566,"city":"Portland, OR","court_count":3,"access":"fee","surface":"","description":""},{"name":"Rainier Community Center","lat":47.533,"lon":-122.284,"city":"Seattle, WA","court_count":6,"access":"fee","surface":"","description":""},{"name":"Virginia Athletic Pickleball Woodbridge","lat":38.66,"lon":-77.249,"city":"Woodbridge, VA","court_count":10,"access":"fee","surface":"","description":""},{"name":"Palace of Pickleball Virginia Beach","lat":36.841,"lon":-76.132,"city":"Virginia Beach, VA","court_count":7,"access":"fee","surface":"","description":""},{"name":"Pickleball Kingdom Springfield VA","lat":38.789,"lon":-77.187,"city":"Springfield, VA","court_count":14,"access":"members","surface":"","description":""},{"name":"The Picklr Sterling VA","lat":39.003,"lon":-77.402,"city":"Sterling, VA","court_count":10,"access":"members","surface":"","description":""},{"name":"Ballers Philly","lat":40.003,"lon":-75.147,"city":"Philadelphia, PA","court_count":6,"access":"fee","surface":"","description":""},{"name":"Seger Park Philadelphia","lat":39.943,"lon":-75.162,"city":"Philadelphia, PA","court_count":4,"access":"public","surface":"","description":""},{"name":"Mattie J.T. Stepanek Park","lat":39.097,"lon":-77.145,"city":"Rockville, MD","court_count":4,"access":"public","surface":"","description":""},{"name":"Aspen Hill Club","lat":39.1,"lon":-77.072,"city":"Silver Spring, MD","court_count":10,"access":"members","surface":"","description":""},{"name":"Twin Hollow Park","lat":40.666,"lon":-111.888,"city":"Murray, UT","court_count":6,"access":"public","surface":"","description":""},{"name":"Discovery Park","lat":43.607,"lon":-116.378,"city":"Meridian, ID","court_count":10,"access":"public","surface":"","description":""},{"name":"Settlers Park","lat":43.62,"lon":-116.415,"city":"Meridian, ID","court_count":8,"access":"public","surface":"","description":""},{"name":"Gabe Nesbitt Community Park McKinney","lat":33.22,"lon":-96.665,"city":"McKinney, TX","court_count":6,"access":"public","surface":"","description":""},{"name":"South County Regional Park","lat":26.317,"lon":-80.149,"city":"Boca Raton, FL","court_count":6,"access":"public","surface":"","description":""},{"name":"Boulders Resort & Spa Pickleball","lat":33.827,"lon":-111.846,"city":"Scottsdale, AZ","court_count":12,"access":"members","surface":"","description":""},{"name":"La Quinta Resort Pickleball","lat":33.663,"lon":-116.31,"city":"La Quinta, CA","court_count":8,"access":"members","surface":"","description":""},{"name":"Fruitville Park Pickleball","lat":27.366,"lon":-82.42,"city":"Sarasota, FL","court_count":6,"access":"public","surface":"","description":""},{"name":"Newtown Estates Park Pickleball","lat":27.342,"lon":-82.503,"city":"Sarasota, FL","court_count":4,"access":"public","surface":"","description":""},{"name":"Glebe Park Sarasota","lat":27.375,"lon":-82.568,"city":"Sarasota, FL","court_count":4,"access":"public","surface":"","description":""},{"name":"Scottsdale Community College Courts","lat":33.49,"lon":-111.871,"city":"Scottsdale, AZ","court_count":8,"access":"public","surface":"","description":""},{"name":"Carpenter Recreation Center Plano","lat":33.011,"lon":-96.748,"city":"Plano, TX","court_count":6,"access":"fee","surface":"","description":""},{"name":"Liberty Recreation Center Plano","lat":33.057,"lon":-96.748,"city":"Plano, TX","court_count":3,"access":"fee","surface":"","description":""},{"name":"PSA McKinney","lat":33.196,"lon":-96.677,"city":"McKinney, TX","court_count":8,"access":"fee","surface":"","description":""},{"name":"Crocker Amazon Playground","lat":37.711,"lon":-122.441,"city":"San Francisco, CA","court_count":4,"access":"public","surface":"","description":""},{"name":"George Christopher Playground","lat":37.749,"lon":-122.437,"city":"San Francisco, CA","court_count":2,"access":"public","surface":"","description":""},{"name":"Jackson Playground","lat":37.761,"lon":-122.398,"city":"San Francisco, CA","court_count":2,"access":"public","surface":"","description":""},{"name":"Upper Noe Recreation Center","lat":37.751,"lon":-122.43,"city":"San Francisco, CA","court_count":2,"access":"public","surface":"","description":""},{"name":"Richmond Recreation Center","lat":37.775,"lon":-122.483,"city":"San Francisco, CA","court_count":2,"access":"public","surface":"","description":""},{"name":"Braxton Pickle Club","lat":35.159,"lon":-80.799,"city":"Charlotte, NC","court_count":14,"access":"fee","surface":"","description":""},{"name":"Lakeview Park Clearwater","lat":27.974,"lon":-82.787,"city":"Clearwater, FL","court_count":6,"access":"public","surface":"","description":""},{"name":"Phoenix Pickleball Courts (Starfire Sports)","lat":33.422,"lon":-112.074,"city":"Phoenix, AZ","court_count":8,"access":"fee","surface":"","description":""},{"name":"YMCA of the Triangle Raleigh","lat":35.801,"lon":-78.643,"city":"Raleigh, NC","court_count":4,"access":"members","surface":"","description":""},{"name":"Ace Pickleball Club Lutz FL","lat":28.143,"lon":-82.458,"city":"Lutz, FL","court_count":10,"access":"members","surface":"","description":""},{"name":"Monocacy Village Park","lat":39.408,"lon":-77.396,"city":"Frederick, MD","court_count":6,"access":"public","surface":"","description":""},{"name":"Pickleheads HQ Atlanta","lat":33.735,"lon":-84.358,"city":"Atlanta, GA","court_count":4,"access":"fee","surface":"","description":""},{"name":"Method Community Park","lat":35.78,"lon":-78.694,"city":"Raleigh, NC","court_count":9,"access":"fee","surface":"","description":""},{"name":"Julian B. Lane Park Tampa pickleball","lat":27.953,"lon":-82.462,"city":"Tampa, FL","court_count":6,"access":"public","surface":"","description":""},{"name":"Bally's Las Vegas Pickleball","lat":36.116,"lon":-115.171,"city":"Las Vegas, NV","court_count":14,"access":"fee","surface":"","description":""},{"name":"The Plaza Hotel Rooftop Las Vegas","lat":36.172,"lon":-115.144,"city":"Las Vegas, NV","court_count":12,"access":"fee","surface":"","description":""},{"name":"The Picklr Salt Lake City West Jordan","lat":40.612,"lon":-111.939,"city":"West Jordan, UT","court_count":8,"access":"members","surface":"","description":""},{"name":"PURE Pickleball & Padel","lat":33.66,"lon":-111.93,"city":"Scottsdale, AZ","court_count":48,"access":"fee","surface":"","description":""},{"name":"Dink & Dine Pickle Park","lat":33.417,"lon":-111.832,"city":"Mesa, AZ","court_count":13,"access":"fee","surface":"","description":""},{"name":"Kiwanis Recreation Center","lat":33.394,"lon":-111.929,"city":"Tempe, AZ","court_count":17,"access":"fee","surface":"","description":""},{"name":"Rio Vista Recreation Center","lat":33.672,"lon":-112.244,"city":"Peoria, AZ","court_count":4,"access":"fee","surface":"","description":""},{"name":"Paloma Community Park","lat":33.723,"lon":-112.213,"city":"Peoria, AZ","court_count":3,"access":"public","surface":"","description":""},{"name":"Foothills Recreation & Aquatics Center","lat":33.71,"lon":-112.152,"city":"Glendale, AZ","court_count":4,"access":"fee","surface":"","description":""},{"name":"Gilbert Regional Park","lat":33.352,"lon":-111.747,"city":"Gilbert, AZ","court_count":8,"access":"public","surface":"","description":""},{"name":"Goodyear Community Park","lat":33.441,"lon":-112.358,"city":"Goodyear, AZ","court_count":4,"access":"public","surface":"","description":""},{"name":"Reffkin Tennis Center","lat":32.225,"lon":-110.948,"city":"Tucson, AZ","court_count":6,"access":"fee","surface":"","description":""},{"name":"Udall Rec Center","lat":32.244,"lon":-110.869,"city":"Tucson, AZ","court_count":6,"access":"fee","surface":"","description":""},{"name":"Himmel Park","lat":32.234,"lon":-110.941,"city":"Tucson, AZ","court_count":6,"access":"fee","surface":"","description":""},{"name":"Washington Park Recreation Center","lat":39.692,"lon":-104.975,"city":"Denver, CO","court_count":6,"access":"fee","surface":"","description":""},{"name":"Gates Tennis Center","lat":39.66,"lon":-104.954,"city":"Denver, CO","court_count":12,"access":"fee","surface":"","description":""},{"name":"Apex Recreation Center","lat":39.819,"lon":-105.128,"city":"Arvada, CO","court_count":28,"access":"fee","surface":"","description":""},{"name":"Apex Simms Street Center","lat":39.833,"lon":-105.139,"city":"Arvada, CO","court_count":26,"access":"public","surface":"","description":""},{"name":"Scott Carpenter Park","lat":40.007,"lon":-105.251,"city":"Boulder, CO","court_count":10,"access":"public","surface":"","description":""},{"name":"North Boulder Recreation Center","lat":40.065,"lon":-105.276,"city":"Boulder, CO","court_count":4,"access":"fee","surface":"","description":""},{"name":"South Boulder Recreation Center","lat":39.988,"lon":-105.249,"city":"Boulder, CO","court_count":4,"access":"fee","surface":"","description":""},{"name":"Boulder Pickleball","lat":40.015,"lon":-105.263,"city":"Boulder, CO","court_count":7,"access":"fee","surface":"","description":""},{"name":"Monument Valley Park","lat":38.856,"lon":-104.846,"city":"Colorado Springs, CO","court_count":15,"access":"public","surface":"","description":""},{"name":"Springs Pickleball","lat":38.847,"lon":-104.851,"city":"Colorado Springs, CO","court_count":19,"access":"fee","surface":"","description":""},{"name":"Big House Pickleball","lat":38.884,"lon":-104.821,"city":"Colorado Springs, CO","court_count":12,"access":"fee","surface":"","description":""},{"name":"The Picklr Littleton","lat":39.613,"lon":-105.016,"city":"Littleton, CO","court_count":16,"access":"fee","surface":"","description":""},{"name":"The Picklr Thornton","lat":39.881,"lon":-104.979,"city":"Thornton, CO","court_count":16,"access":"fee","surface":"","description":""},{"name":"The Picklr Aurora","lat":39.724,"lon":-104.831,"city":"Aurora, CO","court_count":16,"access":"fee","surface":"","description":""},{"name":"Mile High Pickleball Club","lat":39.718,"lon":-105.081,"city":"Lakewood, CO","court_count":8,"access":"fee","surface":"","description":""},{"name":"Pickleball Food Pub","lat":39.883,"lon":-105.037,"city":"Westminster, CO","court_count":8,"access":"fee","surface":"","description":""},{"name":"South Suburban Sports Complex","lat":39.6,"lon":-105.001,"city":"Littleton, CO","court_count":8,"access":"fee","surface":"","description":""},{"name":"Parker Racquet Club","lat":39.519,"lon":-104.761,"city":"Parker, CO","court_count":8,"access":"fee","surface":"","description":""},{"name":"Parrish Park","lat":39.372,"lon":-104.856,"city":"Castle Rock, CO","court_count":9,"access":"public","surface":"","description":""},{"name":"Twin Silo Park","lat":40.525,"lon":-105.013,"city":"Fort Collins, CO","court_count":4,"access":"public","surface":"","description":""},{"name":"Frances Anderson Center","lat":47.658,"lon":-122.373,"city":"Seattle, WA","court_count":6,"access":"fee","surface":"","description":""},{"name":"Miller Playfield","lat":47.617,"lon":-122.314,"city":"Seattle, WA","court_count":4,"access":"public","surface":"","description":""},{"name":"Shoreview Park","lat":47.736,"lon":-122.348,"city":"Seattle, WA","court_count":4,"access":"public","surface":"","description":""},{"name":"South Bellevue Community Center","lat":47.56,"lon":-122.163,"city":"Bellevue, WA","court_count":3,"access":"fee","surface":"","description":""},{"name":"Spiritridge Park","lat":47.585,"lon":-122.155,"city":"Bellevue, WA","court_count":2,"access":"public","surface":"","description":""},{"name":"Sprinker Recreation Center","lat":47.12,"lon":-122.304,"city":"Tacoma, WA","court_count":4,"access":"fee","surface":"","description":""},{"name":"Vassault Park","lat":47.285,"lon":-122.493,"city":"Tacoma, WA","court_count":6,"access":"public","surface":"","description":""},{"name":"Jefferson Park","lat":47.214,"lon":-122.451,"city":"Tacoma, WA","court_count":4,"access":"public","surface":"","description":""},{"name":"Riverfront Park","lat":47.659,"lon":-117.422,"city":"Spokane, WA","court_count":10,"access":"public","surface":"","description":""},{"name":"Spokane North YMCA","lat":47.712,"lon":-117.424,"city":"Spokane, WA","court_count":5,"access":"members","surface":"","description":""},{"name":"Laurelhurst Park","lat":45.523,"lon":-122.612,"city":"Portland, OR","court_count":2,"access":"public","surface":"","description":""},{"name":"Matt Dishman Community Center","lat":45.543,"lon":-122.641,"city":"Portland, OR","court_count":4,"access":"fee","surface":"","description":""},{"name":"Multnomah Arts Center","lat":45.48,"lon":-122.727,"city":"Portland, OR","court_count":4,"access":"fee","surface":"","description":""},{"name":"The People's Courts","lat":45.521,"lon":-122.635,"city":"Portland, OR","court_count":11,"access":"fee","surface":"","description":""},{"name":"Pickleball Zone","lat":45.502,"lon":-122.643,"city":"Portland, OR","court_count":8,"access":"fee","surface":"","description":""},{"name":"THPRD - Tualatin Hills Park & Rec","lat":45.477,"lon":-122.841,"city":"Beaverton, OR","court_count":6,"access":"fee","surface":"","description":""},{"name":"Glendale Park","lat":40.734,"lon":-111.935,"city":"Salt Lake City, UT","court_count":12,"access":"public","surface":"","description":""},{"name":"Wardle Fields Regional Park","lat":40.617,"lon":-111.97,"city":"West Jordan, UT","court_count":16,"access":"public","surface":"","description":""},{"name":"11th Ave Park","lat":40.779,"lon":-111.88,"city":"Salt Lake City, UT","court_count":6,"access":"public","surface":"","description":""},{"name":"Epic Regional Sports Park","lat":40.234,"lon":-111.656,"city":"Provo, UT","court_count":45,"access":"fee","surface":"","description":""},{"name":"Lone Mountain Regional Park","lat":36.248,"lon":-115.259,"city":"Las Vegas, NV","court_count":4,"access":"public","surface":"","description":""},{"name":"Hollywood Park","lat":36.137,"lon":-115.165,"city":"Las Vegas, NV","court_count":8,"access":"public","surface":"","description":""},{"name":"Police Memorial Park","lat":36.186,"lon":-115.137,"city":"Las Vegas, NV","court_count":4,"access":"public","surface":"","description":""},{"name":"Whitney Mesa Recreation Center","lat":36.037,"lon":-115.099,"city":"Henderson, NV","court_count":8,"access":"public","surface":"","description":""},{"name":"Reno Tennis Center","lat":39.533,"lon":-119.815,"city":"Reno, NV","court_count":24,"access":"fee","surface":"","description":""},{"name":"Mira Loma Park","lat":39.5,"lon":-119.785,"city":"Reno, NV","court_count":4,"access":"public","surface":"","description":""},{"name":"Idlewild Park","lat":39.519,"lon":-119.831,"city":"Reno, NV","court_count":4,"access":"public","surface":"","description":""},{"name":"Vegas Indoor Pickleball","lat":36.15,"lon":-115.2,"city":"Las Vegas, NV","court_count":8,"access":"fee","surface":"","description":""},{"name":"Pebble Park","lat":44.978,"lon":-93.1,"city":"Saint Paul, MN","court_count":6,"access":"public","surface":"","description":""},{"name":"Edgecumbe Recreation Center","lat":44.927,"lon":-93.151,"city":"Saint Paul, MN","court_count":6,"access":"fee","surface":"","description":""},{"name":"Battle Creek Recreation Center","lat":44.918,"lon":-93.047,"city":"Saint Paul, MN","court_count":4,"access":"fee","surface":"","description":""},{"name":"Highland Park Community Center","lat":44.921,"lon":-93.166,"city":"Saint Paul, MN","court_count":3,"access":"fee","surface":"","description":""},{"name":"Phalen Park","lat":44.98,"lon":-93.076,"city":"Saint Paul, MN","court_count":4,"access":"public","surface":"","description":""},{"name":"Merriam Park Recreation Center","lat":44.954,"lon":-93.152,"city":"Saint Paul, MN","court_count":4,"access":"fee","surface":"","description":""},{"name":"Palace Community Center","lat":44.937,"lon":-93.095,"city":"Saint Paul, MN","court_count":4,"access":"fee","surface":"","description":""},{"name":"Lake Nokomis","lat":44.909,"lon":-93.218,"city":"Minneapolis, MN","court_count":6,"access":"public","surface":"","description":""},{"name":"Saint Paul Pickleball Club","lat":44.95,"lon":-93.12,"city":"Saint Paul, MN","court_count":2,"access":"members","surface":"","description":""},{"name":"Lucky Shots Pickleball Club","lat":44.985,"lon":-93.28,"city":"Minneapolis, MN","court_count":19,"access":"fee","surface":"","description":""},{"name":"Smash Park Roseville","lat":45.005,"lon":-93.148,"city":"Roseville, MN","court_count":6,"access":"fee","surface":"","description":""},{"name":"Garner Park","lat":43.02,"lon":-89.517,"city":"Madison, WI","court_count":6,"access":"public","surface":"","description":""},{"name":"Reindahl Park","lat":43.098,"lon":-89.36,"city":"Madison, WI","court_count":8,"access":"public","surface":"","description":""},{"name":"Door Creek Park","lat":43.051,"lon":-89.292,"city":"Madison, WI","court_count":8,"access":"public","surface":"","description":""},{"name":"Olbrich Park","lat":43.087,"lon":-89.315,"city":"Madison, WI","court_count":4,"access":"public","surface":"","description":""},{"name":"Warner Park Community Recreation Center","lat":43.124,"lon":-89.37,"city":"Madison, WI","court_count":4,"access":"fee","surface":"","description":""},{"name":"Brittingham Park","lat":43.058,"lon":-89.398,"city":"Madison, WI","court_count":4,"access":"public","surface":"","description":""},{"name":"Froemming Park","lat":42.975,"lon":-88.05,"city":"Milwaukee, WI","court_count":4,"access":"public","surface":"","description":""},{"name":"Jackson Park","lat":43.045,"lon":-87.99,"city":"Milwaukee, WI","court_count":4,"access":"public","surface":"","description":""},{"name":"Humboldt Park","lat":43.046,"lon":-87.903,"city":"Milwaukee, WI","court_count":4,"access":"public","surface":"","description":""},{"name":"Hart Park","lat":43.052,"lon":-88.021,"city":"Wauwatosa, WI","court_count":6,"access":"public","surface":"","description":""},{"name":"Belknap Park","lat":42.976,"lon":-85.657,"city":"Grand Rapids, MI","court_count":21,"access":"public","surface":"","description":""},{"name":"Allmendinger Park","lat":42.27,"lon":-83.788,"city":"Ann Arbor, MI","court_count":2,"access":"public","surface":"","description":""},{"name":"Leslie Park","lat":42.307,"lon":-83.682,"city":"Ann Arbor, MI","court_count":6,"access":"public","surface":"","description":""},{"name":"Wolverine Pickleball","lat":42.292,"lon":-83.742,"city":"Ann Arbor, MI","court_count":12,"access":"fee","surface":"","description":""},{"name":"Palmer Park Pickleball Courts","lat":42.43,"lon":-83.1,"city":"Detroit, MI","court_count":6,"access":"public","surface":"","description":""},{"name":"Court4 Detroit","lat":42.381,"lon":-82.95,"city":"Detroit, MI","court_count":10,"access":"members","surface":"","description":""},{"name":"PickleRage West Bloomfield","lat":42.552,"lon":-83.38,"city":"West Bloomfield, MI","court_count":9,"access":"fee","surface":"","description":""},{"name":"PickleRage Portage","lat":42.196,"lon":-85.578,"city":"Portage, MI","court_count":9,"access":"fee","surface":"","description":""},{"name":"Denison Park","lat":41.515,"lon":-81.557,"city":"Cleveland Heights, OH","court_count":6,"access":"public","surface":"","description":""},{"name":"YMCA Pickleball Center at North Royalton","lat":41.313,"lon":-81.735,"city":"North Royalton, OH","court_count":4,"access":"members","surface":"","description":""},{"name":"Antrim Park","lat":40.093,"lon":-83.024,"city":"Columbus, OH","court_count":4,"access":"public","surface":"","description":""},{"name":"Northam Park","lat":40.022,"lon":-83.063,"city":"Upper Arlington, OH","court_count":6,"access":"public","surface":"","description":""},{"name":"Scioto Southland Community Center","lat":39.878,"lon":-82.96,"city":"Columbus, OH","court_count":4,"access":"fee","surface":"","description":""},{"name":"Pickle & Chill Columbus","lat":40.005,"lon":-83.017,"city":"Columbus, OH","court_count":6,"access":"fee","surface":"","description":""},{"name":"Pickle Shack Columbus","lat":40.077,"lon":-82.978,"city":"Columbus, OH","court_count":6,"access":"fee","surface":"","description":""},{"name":"Smash Park Westerville","lat":40.126,"lon":-82.929,"city":"Westerville, OH","court_count":6,"access":"fee","surface":"","description":""},{"name":"Frick Park","lat":40.424,"lon":-79.878,"city":"Pittsburgh, PA","court_count":6,"access":"public","surface":"","description":""},{"name":"Graham Park Cranberry Township","lat":40.683,"lon":-80.112,"city":"Cranberry Township, PA","court_count":13,"access":"fee","surface":"","description":""},{"name":"Riverbank Park","lat":40.497,"lon":-79.833,"city":"Verona, PA","court_count":4,"access":"public","surface":"","description":""},{"name":"Lauri Ann West Community Center","lat":40.484,"lon":-79.892,"city":"Pittsburgh, PA","court_count":4,"access":"fee","surface":"","description":""},{"name":"Greater Pittsburgh Sports Complex","lat":40.519,"lon":-80.169,"city":"Coraopolis, PA","court_count":6,"access":"fee","surface":"","description":""},{"name":"Water Tower Recreation Center","lat":40.063,"lon":-75.086,"city":"Philadelphia, PA","court_count":6,"access":"public","surface":"","description":""},{"name":"Sellwood Park Raleigh","lat":35.803,"lon":-78.644,"city":"Raleigh, NC","court_count":6,"access":"public","surface":"","description":""},{"name":"John Chavis Memorial Park","lat":35.775,"lon":-78.633,"city":"Raleigh, NC","court_count":4,"access":"public","surface":"","description":""},{"name":"PinPoint Pickleball Raleigh","lat":35.823,"lon":-78.614,"city":"Raleigh, NC","court_count":8,"access":"fee","surface":"","description":""},{"name":"The Underground Pickleball Raleigh","lat":35.81,"lon":-78.598,"city":"Raleigh, NC","court_count":6,"access":"fee","surface":"","description":""},{"name":"Forest Hills Park","lat":35.993,"lon":-78.944,"city":"Durham, NC","court_count":4,"access":"public","surface":"","description":""},{"name":"Garrett Road Park","lat":35.999,"lon":-78.961,"city":"Durham, NC","court_count":6,"access":"public","surface":"","description":""},{"name":"Walltown Park Recreation Center","lat":36.01,"lon":-78.921,"city":"Durham, NC","court_count":3,"access":"fee","surface":"","description":""},{"name":"Morreene Road Park","lat":36.065,"lon":-78.953,"city":"Durham, NC","court_count":4,"access":"public","surface":"","description":""},{"name":"Joanie Moser Memorial Park","lat":36.026,"lon":-80.375,"city":"Clemmons, NC","court_count":9,"access":"public","surface":"","description":""},{"name":"Old Town Neighborhood Park","lat":36.104,"lon":-80.259,"city":"Winston-Salem, NC","court_count":8,"access":"public","surface":"","description":""},{"name":"Shaffner Park","lat":36.1,"lon":-80.25,"city":"Winston-Salem, NC","court_count":6,"access":"public","surface":"","description":""},{"name":"Sedge Garden Park","lat":36.116,"lon":-80.078,"city":"Kernersville, NC","court_count":10,"access":"public","surface":"","description":""},{"name":"Oak Summit Park","lat":36.163,"lon":-80.209,"city":"Winston-Salem, NC","court_count":6,"access":"public","surface":"","description":""},{"name":"Smith Community Park","lat":36.117,"lon":-79.79,"city":"Greensboro, NC","court_count":6,"access":"public","surface":"","description":""},{"name":"Proehlific Park","lat":36.148,"lon":-79.807,"city":"Greensboro, NC","court_count":6,"access":"fee","surface":"","description":""},{"name":"ClubFitness Oak Branch","lat":36.073,"lon":-79.883,"city":"Greensboro, NC","court_count":4,"access":"members","surface":"","description":""},{"name":"A.D. Williams Park","lat":33.776,"lon":-84.394,"city":"Atlanta, GA","court_count":4,"access":"public","surface":"","description":""},{"name":"Grant Park Atlanta","lat":33.744,"lon":-84.373,"city":"Atlanta, GA","court_count":4,"access":"public","surface":"","description":""},{"name":"Peachtree Hills Park","lat":33.828,"lon":-84.371,"city":"Atlanta, GA","court_count":4,"access":"public","surface":"","description":""},{"name":"Bitsy Grant Racquet Center","lat":33.834,"lon":-84.4,"city":"Atlanta, GA","court_count":8,"access":"fee","surface":"","description":""},{"name":"Chastain Park Racquet Center","lat":33.9,"lon":-84.378,"city":"Atlanta, GA","court_count":4,"access":"fee","surface":"","description":""},{"name":"Sharon Lester Racquet Center at Piedmont Park","lat":33.788,"lon":-84.374,"city":"Atlanta, GA","court_count":4,"access":"fee","surface":"","description":""},{"name":"Painted Pickle Atlanta","lat":33.787,"lon":-84.417,"city":"Atlanta, GA","court_count":8,"access":"fee","surface":"","description":""},{"name":"Lake Mayer Community Park","lat":32.034,"lon":-81.102,"city":"Savannah, GA","court_count":6,"access":"public","surface":"","description":""},{"name":"Daffin Park","lat":32.056,"lon":-81.082,"city":"Savannah, GA","court_count":6,"access":"public","surface":"","description":""},{"name":"Islands YMCA","lat":31.98,"lon":-80.985,"city":"Savannah, GA","court_count":4,"access":"members","surface":"","description":""},{"name":"West Chatham YMCA","lat":32.113,"lon":-81.273,"city":"Pooler, GA","court_count":4,"access":"members","surface":"","description":""},{"name":"The Courts at West Meade","lat":36.148,"lon":-86.904,"city":"Nashville, TN","court_count":12,"access":"fee","surface":"","description":""},{"name":"Music City Pickleball","lat":36.034,"lon":-86.782,"city":"Brentwood, TN","court_count":12,"access":"fee","surface":"","description":""},{"name":"Lipscomb Racquet Club","lat":36.128,"lon":-86.797,"city":"Nashville, TN","court_count":4,"access":"fee","surface":"","description":""},{"name":"Pickleville Tennessee","lat":35.959,"lon":-83.92,"city":"Knoxville, TN","court_count":16,"access":"fee","surface":"","description":""},{"name":"Pavilion of Pickleball","lat":35.941,"lon":-83.875,"city":"Knoxville, TN","court_count":11,"access":"fee","surface":"","description":""},{"name":"Lakeshore Park","lat":35.985,"lon":-83.991,"city":"Knoxville, TN","court_count":6,"access":"public","surface":"","description":""},{"name":"Sandra Moon Community Complex","lat":34.735,"lon":-86.586,"city":"Huntsville, AL","court_count":12,"access":"public","surface":"","description":""},{"name":"Shurney Legacy Center","lat":34.73,"lon":-86.598,"city":"Huntsville, AL","court_count":3,"access":"public","surface":"","description":""},{"name":"Samuell Grand Tennis & Pickleball Center","lat":32.793,"lon":-96.718,"city":"Dallas, TX","court_count":14,"access":"fee","surface":"","description":""},{"name":"Kiest Park","lat":32.694,"lon":-96.86,"city":"Dallas, TX","court_count":4,"access":"public","surface":"","description":""},{"name":"L.B. Houston Tennis Center","lat":32.919,"lon":-96.878,"city":"Dallas, TX","court_count":12,"access":"fee","surface":"","description":""},{"name":"Memorial Park Tennis Center","lat":29.763,"lon":-95.434,"city":"Houston, TX","court_count":8,"access":"fee","surface":"","description":""},{"name":"Spotts Park","lat":29.748,"lon":-95.378,"city":"Houston, TX","court_count":2,"access":"public","surface":"","description":""},{"name":"Briar Grove Park","lat":29.741,"lon":-95.539,"city":"Houston, TX","court_count":4,"access":"public","surface":"","description":""},{"name":"Elite Pickleball Club The Woodlands","lat":30.172,"lon":-95.492,"city":"The Woodlands, TX","court_count":8,"access":"members","surface":"","description":""},{"name":"PALA Pickleball","lat":29.752,"lon":-95.413,"city":"Houston, TX","court_count":11,"access":"fee","surface":"","description":""},{"name":"Fairchild Recreation Center","lat":29.424,"lon":-98.475,"city":"San Antonio, TX","court_count":18,"access":"public","surface":"","description":""},{"name":"McFarlin Tennis Center","lat":29.516,"lon":-98.502,"city":"San Antonio, TX","court_count":6,"access":"fee","surface":"","description":""},{"name":"Olmos Basin Park","lat":29.502,"lon":-98.476,"city":"San Antonio, TX","court_count":4,"access":"public","surface":"","description":""},{"name":"McAllister Park","lat":29.574,"lon":-98.43,"city":"San Antonio, TX","court_count":6,"access":"public","surface":"","description":""},{"name":"Epoch Pickleball","lat":29.601,"lon":-98.498,"city":"San Antonio, TX","court_count":3,"access":"members","surface":"","description":""},{"name":"Al Kruse Tennis Center","lat":27.747,"lon":-97.395,"city":"Corpus Christi, TX","court_count":6,"access":"fee","surface":"","description":""},{"name":"H-E-B Tennis Center","lat":27.769,"lon":-97.419,"city":"Corpus Christi, TX","court_count":6,"access":"fee","surface":"","description":""},{"name":"Wood Club Waco","lat":31.549,"lon":-97.148,"city":"Waco, TX","court_count":8,"access":"fee","surface":"","description":""},{"name":"Flower Mound Tennis Center","lat":33.025,"lon":-97.097,"city":"Flower Mound, TX","court_count":6,"access":"fee","surface":"","description":""},{"name":"East Naples Community Park","lat":26.093,"lon":-81.726,"city":"Naples, FL","court_count":64,"access":"public","surface":"","description":""},{"name":"Patch Reef Park","lat":26.387,"lon":-80.12,"city":"Boca Raton, FL","court_count":18,"access":"fee","surface":"","description":""},{"name":"The Fort at Snyder Park","lat":26.086,"lon":-80.185,"city":"Fort Lauderdale, FL","court_count":43,"access":"fee","surface":"","description":""},{"name":"Holiday Park","lat":26.128,"lon":-80.124,"city":"Fort Lauderdale, FL","court_count":6,"access":"public","surface":"","description":""},{"name":"Hagen Park Community Center","lat":26.248,"lon":-80.207,"city":"Margate, FL","court_count":3,"access":"fee","surface":"","description":""},{"name":"Plantation Central Park","lat":26.126,"lon":-80.241,"city":"Plantation, FL","court_count":8,"access":"public","surface":"","description":""},{"name":"Diadem Pickleball Complex","lat":26.272,"lon":-80.181,"city":"Coconut Creek, FL","court_count":9,"access":"fee","surface":"","description":""},{"name":"West Palm Beach Pickleball Complex (Okeeheelee Park)","lat":26.661,"lon":-80.142,"city":"West Palm Beach, FL","court_count":6,"access":"public","surface":"","description":""},{"name":"Carlin Park","lat":26.947,"lon":-80.115,"city":"Jupiter, FL","court_count":6,"access":"public","surface":"","description":""},{"name":"Palm Beach Gardens Tennis & Pickleball Center","lat":26.848,"lon":-80.111,"city":"Palm Beach Gardens, FL","court_count":8,"access":"fee","surface":"","description":""},{"name":"Lilac Drive Park","lat":26.636,"lon":-80.108,"city":"Lake Worth, FL","court_count":12,"access":"public","surface":"","description":""},{"name":"Caloosa Park","lat":26.524,"lon":-80.118,"city":"Boynton Beach, FL","court_count":6,"access":"public","surface":"","description":""},{"name":"Burt Aaronson South County Regional Park","lat":26.308,"lon":-80.185,"city":"Boca Raton, FL","court_count":8,"access":"public","surface":"","description":""},{"name":"Dinko Pickleball Complex","lat":25.772,"lon":-80.273,"city":"Miami, FL","court_count":8,"access":"fee","surface":"","description":""},{"name":"Riviera Tennis Center & Pickleball","lat":25.726,"lon":-80.27,"city":"Coral Gables, FL","court_count":4,"access":"fee","surface":"","description":""},{"name":"Amelia Yards","lat":25.867,"lon":-80.298,"city":"Hialeah, FL","court_count":8,"access":"members","surface":"","description":""},{"name":"ClearOne Sports Centre","lat":28.573,"lon":-81.465,"city":"Orlando, FL","court_count":13,"access":"fee","surface":"","description":""},{"name":"Orlando Racket Sports","lat":28.483,"lon":-81.397,"city":"Orlando, FL","court_count":11,"access":"fee","surface":"","description":""},{"name":"Meadow Woods Recreation Center","lat":28.37,"lon":-81.346,"city":"Orlando, FL","court_count":4,"access":"fee","surface":"","description":""},{"name":"Gaylord Palms Resort Courts","lat":28.356,"lon":-81.501,"city":"Kissimmee, FL","court_count":18,"access":"members","surface":"","description":""},{"name":"Alachua County Sports and Events Center","lat":29.658,"lon":-82.414,"city":"Gainesville, FL","court_count":21,"access":"fee","surface":"","description":""},{"name":"The Pickle Pad Tallahassee","lat":30.438,"lon":-84.281,"city":"Tallahassee, FL","court_count":6,"access":"fee","surface":"","description":""},{"name":"PickleRage Fort Myers","lat":26.574,"lon":-81.85,"city":"Fort Myers, FL","court_count":9,"access":"fee","surface":"","description":""},{"name":"St. Pete Athletic","lat":27.771,"lon":-82.649,"city":"St. Petersburg, FL","court_count":16,"access":"fee","surface":"","description":""},{"name":"Morningside Recreation Complex","lat":27.987,"lon":-82.718,"city":"Clearwater, FL","court_count":9,"access":"fee","surface":"","description":""},{"name":"McMullen Tennis Center","lat":27.932,"lon":-82.76,"city":"Clearwater, FL","court_count":15,"access":"fee","surface":"","description":""},{"name":"The Long Center","lat":27.998,"lon":-82.761,"city":"Clearwater, FL","court_count":6,"access":"fee","surface":"","description":""},{"name":"Eagle Scout Park","lat":28.016,"lon":-82.773,"city":"Dunedin, FL","court_count":10,"access":"public","surface":"","description":""},{"name":"Safety Harbor Community Center","lat":27.993,"lon":-82.697,"city":"Safety Harbor, FL","court_count":4,"access":"fee","surface":"","description":""},{"name":"Dink House Largo","lat":27.909,"lon":-82.789,"city":"Largo, FL","court_count":4,"access":"fee","surface":"","description":""},{"name":"Hollis T. Williams Park","lat":30.421,"lon":-87.215,"city":"Pensacola, FL","court_count":3,"access":"public","surface":"","description":""},{"name":"Albert Ray Massey Park","lat":29.637,"lon":-82.374,"city":"Gainesville, FL","court_count":3,"access":"public","surface":"","description":""},{"name":"Boston Pickle Club Hyde Park","lat":42.252,"lon":-71.117,"city":"Boston, MA","court_count":7,"access":"fee","surface":"","description":""},{"name":"Boston Pickle Club Norwell","lat":42.155,"lon":-70.793,"city":"Norwell, MA","court_count":10,"access":"fee","surface":"","description":""},{"name":"PKL Boston","lat":42.337,"lon":-71.044,"city":"Boston, MA","court_count":5,"access":"fee","surface":"","description":""},{"name":"The Park at Assembly Row","lat":42.393,"lon":-71.082,"city":"Somerville, MA","court_count":12,"access":"fee","surface":"","description":""},{"name":"Harpoon Brewery Pickleball Social Club","lat":42.346,"lon":-71.04,"city":"Boston, MA","court_count":4,"access":"fee","surface":"","description":""},{"name":"The Track at New Balance","lat":42.355,"lon":-71.148,"city":"Boston, MA","court_count":4,"access":"fee","surface":"","description":""},{"name":"Beaconsfield Park","lat":42.329,"lon":-71.142,"city":"Brookline, MA","court_count":8,"access":"public","surface":"","description":""},{"name":"Warren Field","lat":42.333,"lon":-71.145,"city":"Brookline, MA","court_count":6,"access":"public","surface":"","description":""},{"name":"King Farm Stepanek Park","lat":39.091,"lon":-77.162,"city":"Rockville, MD","court_count":4,"access":"public","surface":"","description":""},{"name":"Montgomery County Recreation Silver Spring","lat":39,"lon":-77.03,"city":"Silver Spring, MD","court_count":12,"access":"fee","surface":"","description":""},{"name":"County Home Park","lat":39.476,"lon":-76.636,"city":"Cockeysville, MD","court_count":8,"access":"public","surface":"","description":""},{"name":"Coppermine Racquet & Fitness Club","lat":39.372,"lon":-76.723,"city":"Pikesville, MD","court_count":4,"access":"members","surface":"","description":""},{"name":"Southwest Regional Recreation Center","lat":39.235,"lon":-76.674,"city":"Halethorpe, MD","court_count":4,"access":"fee","surface":"","description":""},{"name":"PickleRage Glen Burnie","lat":39.161,"lon":-76.628,"city":"Glen Burnie, MD","court_count":9,"access":"fee","surface":"","description":""},{"name":"YMCA Bethesda-Chevy Chase","lat":38.981,"lon":-77.094,"city":"Bethesda, MD","court_count":4,"access":"members","surface":"","description":""},{"name":"George Hellwig Memorial Park","lat":38.638,"lon":-77.282,"city":"Woodbridge, VA","court_count":6,"access":"public","surface":"","description":""},{"name":"Ben Lomond Regional Park","lat":38.709,"lon":-77.479,"city":"Manassas, VA","court_count":6,"access":"public","surface":"","description":""},{"name":"Pickleball Virginia Beach","lat":36.834,"lon":-76.012,"city":"Virginia Beach, VA","court_count":25,"access":"fee","surface":"","description":""},{"name":"Norfolk Indoor Sports","lat":36.851,"lon":-76.286,"city":"Norfolk, VA","court_count":4,"access":"fee","surface":"","description":""},{"name":"Brookside Park","lat":39.02,"lon":-94.594,"city":"Kansas City, MO","court_count":3,"access":"public","surface":"","description":""},{"name":"Topseed Pickleball Club","lat":36.082,"lon":-95.903,"city":"Tulsa, OK","court_count":12,"access":"fee","surface":"","description":""},{"name":"Heller Park","lat":36.13,"lon":-95.96,"city":"Tulsa, OK","court_count":6,"access":"public","surface":"","description":""},{"name":"Haikey Creek Park","lat":35.956,"lon":-95.88,"city":"Bixby, OK","court_count":6,"access":"public","surface":"","description":""},{"name":"Blue Valley Recreation Center","lat":38.872,"lon":-94.749,"city":"Overland Park, KS","court_count":16,"access":"fee","surface":"","description":""},{"name":"Leawood City Park","lat":38.912,"lon":-94.627,"city":"Leawood, KS","court_count":8,"access":"public","surface":"","description":""},{"name":"Two Trails Park","lat":38.884,"lon":-94.818,"city":"Olathe, KS","court_count":4,"access":"public","surface":"","description":""},{"name":"Meadowbrook Park Prairie Village","lat":38.981,"lon":-94.633,"city":"Prairie Village, KS","court_count":4,"access":"public","surface":"","description":""},{"name":"Bois D'Arc Park Lenexa","lat":38.965,"lon":-94.802,"city":"Lenexa, KS","court_count":4,"access":"public","surface":"","description":""},{"name":"Franklin Park Overland Park","lat":38.82,"lon":-94.736,"city":"Overland Park, KS","court_count":4,"access":"public","surface":"","description":""},{"name":"The J Kansas City","lat":38.895,"lon":-94.648,"city":"Overland Park, KS","court_count":8,"access":"fee","surface":"","description":""},{"name":"Smash Park West Des Moines","lat":41.577,"lon":-93.78,"city":"West Des Moines, IA","court_count":6,"access":"fee","surface":"","description":""},{"name":"Valley View Park","lat":41.558,"lon":-93.857,"city":"West Des Moines, IA","court_count":8,"access":"public","surface":"","description":""},{"name":"Jones Park Pickleball Complex","lat":41.99,"lon":-91.709,"city":"Cedar Rapids, IA","court_count":10,"access":"public","surface":"","description":""},{"name":"Pickle Palace Cedar Rapids","lat":41.977,"lon":-91.665,"city":"Cedar Rapids, IA","court_count":8,"access":"fee","surface":"","description":""},{"name":"Veterans Memorial Tennis Center","lat":41.973,"lon":-91.693,"city":"Cedar Rapids, IA","court_count":12,"access":"public","surface":"","description":""},{"name":"Noelridge Park Tennis Courts","lat":42.023,"lon":-91.659,"city":"Cedar Rapids, IA","court_count":6,"access":"public","surface":"","description":""},{"name":"Smash Park La Vista","lat":41.179,"lon":-96.03,"city":"La Vista, NE","court_count":6,"access":"fee","surface":"","description":""},{"name":"Koch Family Tennis Center","lat":41.283,"lon":-96.083,"city":"Omaha, NE","court_count":10,"access":"fee","surface":"","description":""},{"name":"Prairie Lane Park","lat":41.248,"lon":-96.063,"city":"Omaha, NE","court_count":8,"access":"public","surface":"","description":""},{"name":"A.V. Sorenson Community Center","lat":41.231,"lon":-96.131,"city":"Omaha, NE","court_count":4,"access":"fee","surface":"","description":""},{"name":"Salvation Army Kroc Center Omaha","lat":41.282,"lon":-95.979,"city":"Omaha, NE","court_count":3,"access":"fee","surface":"","description":""},{"name":"Brunsdale Park","lat":46.864,"lon":-96.775,"city":"Fargo, ND","court_count":9,"access":"public","surface":"","description":""},{"name":"Valley View Park Fargo","lat":46.836,"lon":-96.808,"city":"Fargo, ND","court_count":4,"access":"public","surface":"","description":""},{"name":"Longfellow Park","lat":46.873,"lon":-96.841,"city":"Fargo, ND","court_count":4,"access":"public","surface":"","description":""},{"name":"Fargo Parks Sports Center","lat":46.85,"lon":-96.796,"city":"Fargo, ND","court_count":6,"access":"fee","surface":"","description":""},{"name":"Courts Plus Community Fitness","lat":46.849,"lon":-96.885,"city":"Fargo, ND","court_count":6,"access":"members","surface":"","description":""},{"name":"Yankton Trail Park","lat":43.558,"lon":-96.757,"city":"Sioux Falls, SD","court_count":6,"access":"public","surface":"","description":""},{"name":"Sanford Sports Complex","lat":43.544,"lon":-96.722,"city":"Sioux Falls, SD","court_count":8,"access":"fee","surface":"","description":""},{"name":"Meridian Homecourt","lat":43.607,"lon":-116.412,"city":"Meridian, ID","court_count":14,"access":"fee","surface":"","description":""},{"name":"Manzano Mesa Park","lat":35.066,"lon":-106.547,"city":"Albuquerque, NM","court_count":33,"access":"public","surface":"","description":""},{"name":"Ventana Ranch Park","lat":35.212,"lon":-106.701,"city":"Albuquerque, NM","court_count":12,"access":"public","surface":"","description":""},{"name":"Columbus Park","lat":35.159,"lon":-106.691,"city":"Albuquerque, NM","court_count":4,"access":"public","surface":"","description":""},{"name":"Villela Park","lat":35.115,"lon":-106.634,"city":"Albuquerque, NM","court_count":6,"access":"public","surface":"","description":""},{"name":"Palo Duro Sports and Fitness Center","lat":35.094,"lon":-106.597,"city":"Albuquerque, NM","court_count":4,"access":"fee","surface":"","description":""},{"name":"Highland Road Community Park","lat":30.403,"lon":-91.109,"city":"Baton Rouge, LA","court_count":7,"access":"public","surface":"","description":""},{"name":"Pelican Park","lat":30.373,"lon":-90.073,"city":"Mandeville, LA","court_count":8,"access":"public","surface":"","description":""},{"name":"Lyons Recreation Center","lat":29.935,"lon":-90.118,"city":"New Orleans, LA","court_count":2,"access":"fee","surface":"","description":""},{"name":"City Park New Orleans","lat":29.988,"lon":-90.098,"city":"New Orleans, LA","court_count":4,"access":"public","surface":"","description":""},{"name":"Crossgates Family Fitness","lat":30.283,"lon":-89.783,"city":"Slidell, LA","court_count":8,"access":"members","surface":"","description":""},{"name":"CityPickle at Wollman Rink","lat":40.767,"lon":-73.974,"city":"New York, NY","court_count":14,"access":"fee","surface":"","description":""},{"name":"Riverside Park","lat":40.804,"lon":-73.977,"city":"New York, NY","court_count":5,"access":"public","surface":"","description":""},{"name":"Marine Park","lat":40.598,"lon":-73.923,"city":"New York, NY","court_count":8,"access":"public","surface":"","description":""},{"name":"McCarren Park","lat":40.72,"lon":-73.95,"city":"New York, NY","court_count":16,"access":"public","surface":"","description":""},{"name":"SPORTIME Randall's Island","lat":40.793,"lon":-73.926,"city":"New York, NY","court_count":12,"access":"fee","surface":"","description":""},{"name":"Crocheron Park","lat":40.764,"lon":-73.759,"city":"New York, NY","court_count":6,"access":"public","surface":"","description":""},{"name":"Van Cortlandt Park","lat":40.898,"lon":-73.882,"city":"New York, NY","court_count":4,"access":"public","surface":"","description":""},{"name":"Maplewood Park","lat":43.167,"lon":-77.655,"city":"Rochester, NY","court_count":6,"access":"public","surface":"","description":""},{"name":"Greece Community and Senior Center","lat":43.21,"lon":-77.706,"city":"Greece, NY","court_count":6,"access":"fee","surface":"","description":""},{"name":"Elm Avenue Park","lat":42.614,"lon":-73.829,"city":"Bethlehem, NY","court_count":10,"access":"public","surface":"","description":""},{"name":"Capital Hills Golf Course","lat":42.665,"lon":-73.84,"city":"Albany, NY","court_count":4,"access":"public","surface":"","description":""},{"name":"SPORTIME Westbury","lat":40.756,"lon":-73.579,"city":"Westbury, NY","court_count":13,"access":"fee","surface":"","description":""},{"name":"SPORTIME Yorktown","lat":41.278,"lon":-73.824,"city":"Yorktown Heights, NY","court_count":12,"access":"fee","surface":"","description":""},{"name":"Saw Mill Club","lat":41.211,"lon":-73.721,"city":"Mount Kisco, NY","court_count":6,"access":"members","surface":"","description":""},{"name":"Cross Court Pickleball","lat":41.035,"lon":-73.773,"city":"White Plains, NY","court_count":8,"access":"fee","surface":"","description":""},{"name":"PickleRage Union County","lat":40.637,"lon":-74.412,"city":"Plainfield, NJ","court_count":9,"access":"fee","surface":"","description":""},{"name":"Big City Pickle Lincoln Yards","lat":41.913,"lon":-87.661,"city":"Chicago, IL","court_count":10,"access":"fee","surface":"","description":""},{"name":"Maggie Daley Park","lat":41.883,"lon":-87.619,"city":"Chicago, IL","court_count":10,"access":"public","surface":"","description":""},{"name":"Brooks Park","lat":41.781,"lon":-87.741,"city":"Chicago, IL","court_count":4,"access":"public","surface":"","description":""},{"name":"Columbus Park Chicago","lat":41.87,"lon":-87.762,"city":"Chicago, IL","court_count":4,"access":"public","surface":"","description":""},{"name":"Sheridan Park Gymnasium","lat":41.955,"lon":-87.674,"city":"Chicago, IL","court_count":6,"access":"public","surface":"","description":""},{"name":"Warren Park and Field House","lat":41.985,"lon":-87.68,"city":"Chicago, IL","court_count":8,"access":"fee","surface":"","description":""},{"name":"Pottawatomie Community Center","lat":41.981,"lon":-87.742,"city":"Chicago, IL","court_count":4,"access":"fee","surface":"","description":""},{"name":"ComEd Recreation Center","lat":41.871,"lon":-87.671,"city":"Chicago, IL","court_count":4,"access":"fee","surface":"","description":""},{"name":"Kelly Hall YMCA","lat":41.903,"lon":-87.72,"city":"Chicago, IL","court_count":4,"access":"members","surface":"","description":""},{"name":"Irving Park YMCA","lat":41.953,"lon":-87.722,"city":"Chicago, IL","court_count":4,"access":"members","surface":"","description":""},{"name":"Lake View YMCA","lat":41.94,"lon":-87.656,"city":"Chicago, IL","court_count":4,"access":"members","surface":"","description":""},{"name":"Griffith Park Pickleball Center","lat":34.133,"lon":-118.291,"city":"Los Angeles, CA","court_count":6,"access":"fee","surface":"","description":""},{"name":"Westchester Pickleball Center","lat":33.962,"lon":-118.406,"city":"Los Angeles, CA","court_count":6,"access":"fee","surface":"","description":""},{"name":"Plummer Park","lat":34.088,"lon":-118.359,"city":"West Hollywood, CA","court_count":5,"access":"public","surface":"","description":""},{"name":"Allendale Park","lat":34.149,"lon":-118.131,"city":"Pasadena, CA","court_count":4,"access":"public","surface":"","description":""},{"name":"Pickle Pop Santa Monica","lat":34.017,"lon":-118.497,"city":"Santa Monica, CA","court_count":3,"access":"fee","surface":"","description":""},{"name":"Encino Recreation Center","lat":34.163,"lon":-118.5,"city":"Los Angeles, CA","court_count":4,"access":"fee","surface":"","description":""},{"name":"Chatsworth Recreation Center","lat":34.257,"lon":-118.602,"city":"Los Angeles, CA","court_count":4,"access":"fee","surface":"","description":""},{"name":"Tarzana Recreation Center","lat":34.167,"lon":-118.553,"city":"Los Angeles, CA","court_count":4,"access":"fee","surface":"","description":""},{"name":"Bushrod Park","lat":37.852,"lon":-122.266,"city":"Oakland, CA","court_count":4,"access":"public","surface":"","description":""},{"name":"Montclair Recreation Center","lat":37.827,"lon":-122.21,"city":"Oakland, CA","court_count":4,"access":"fee","surface":"","description":""},{"name":"San Pablo Park","lat":37.869,"lon":-122.29,"city":"Berkeley, CA","court_count":4,"access":"public","surface":"","description":""},{"name":"Ocean Beach Recreation Center","lat":32.746,"lon":-117.249,"city":"San Diego, CA","court_count":3,"access":"public","surface":"","description":""},{"name":"Black Mountain Multipurpose Center","lat":32.952,"lon":-117.099,"city":"San Diego, CA","court_count":3,"access":"fee","surface":"","description":""},{"name":"Del Cerro Tennis Club and Pickleball Hub","lat":32.786,"lon":-117.072,"city":"San Diego, CA","court_count":12,"access":"fee","surface":"","description":""},{"name":"Oasis Community Park","lat":38.399,"lon":-121.381,"city":"Elk Grove, CA","court_count":6,"access":"public","surface":"","description":""},{"name":"Folsom Sports Complex","lat":38.658,"lon":-121.143,"city":"Folsom, CA","court_count":7,"access":"fee","surface":"","description":""},{"name":"Orchid Park","lat":36.819,"lon":-119.814,"city":"Fresno, CA","court_count":8,"access":"public","surface":"","description":""},{"name":"Woodward Park Fresno","lat":36.812,"lon":-119.806,"city":"Fresno, CA","court_count":4,"access":"public","surface":"","description":""},{"name":"Vinland Park","lat":36.807,"lon":-119.745,"city":"Fresno, CA","court_count":4,"access":"public","surface":"","description":""},{"name":"Keehi Lagoon District Park","lat":21.33,"lon":-157.899,"city":"Honolulu, HI","court_count":12,"access":"public","surface":"","description":""},{"name":"Kailua District Park","lat":21.4,"lon":-157.737,"city":"Kailua, HI","court_count":4,"access":"public","surface":"","description":""},{"name":"Ala Moana Regional Park","lat":21.293,"lon":-157.851,"city":"Honolulu, HI","court_count":6,"access":"public","surface":"","description":""},{"name":"Diamond Head Tennis Center","lat":21.259,"lon":-157.81,"city":"Honolulu, HI","court_count":4,"access":"fee","surface":"","description":""},{"name":"Lahaina Civic Center","lat":20.874,"lon":-156.676,"city":"Lahaina, HI","court_count":4,"access":"public","surface":"","description":""},{"name":"O'Malley Sports Center","lat":61.16,"lon":-149.78,"city":"Anchorage, AK","court_count":4,"access":"fee","surface":"","description":""},{"name":"The Alaska Club Eagle River","lat":61.322,"lon":-149.568,"city":"Eagle River, AK","court_count":4,"access":"members","surface":"","description":""},{"name":"Colt State Park","lat":41.672,"lon":-71.26,"city":"Bristol, RI","court_count":4,"access":"public","surface":"","description":""},{"name":"Goddard Memorial State Park","lat":41.684,"lon":-71.465,"city":"Warwick, RI","court_count":4,"access":"public","surface":"","description":""},{"name":"Slater Memorial Park","lat":41.857,"lon":-71.378,"city":"Pawtucket, RI","court_count":4,"access":"public","surface":"","description":""},{"name":"Newport County YMCA","lat":41.482,"lon":-71.307,"city":"Newport, RI","court_count":4,"access":"members","surface":"","description":""},{"name":"Owl's Nest Resort Racquet Complex","lat":43.863,"lon":-71.62,"city":"Campton, NH","court_count":13,"access":"fee","surface":"","description":""},{"name":"E.P. Tom Sawyer State Park","lat":38.263,"lon":-85.587,"city":"Louisville, KY","court_count":17,"access":"public","surface":"","description":""},{"name":"Charlie Vettiner Park","lat":38.141,"lon":-85.66,"city":"Louisville, KY","court_count":12,"access":"public","surface":"","description":""},{"name":"Wyandotte Park","lat":38.179,"lon":-85.771,"city":"Louisville, KY","court_count":6,"access":"public","surface":"","description":""},{"name":"Berrytown Recreation Center","lat":38.238,"lon":-85.591,"city":"Louisville, KY","court_count":3,"access":"fee","surface":"","description":""},{"name":"Baird Urban Sports Park","lat":38.258,"lon":-85.768,"city":"Louisville, KY","court_count":4,"access":"fee","surface":"","description":""},{"name":"Riverview Park Louisville","lat":38.096,"lon":-85.832,"city":"Louisville, KY","court_count":4,"access":"public","surface":"","description":""},{"name":"Frederick Douglass Community Center","lat":39.801,"lon":-86.152,"city":"Indianapolis, IN","court_count":4,"access":"fee","surface":"","description":""},{"name":"Broad Ripple Park Family Center","lat":39.867,"lon":-86.143,"city":"Indianapolis, IN","court_count":3,"access":"fee","surface":"","description":""},{"name":"Ellenberger Park","lat":39.775,"lon":-86.096,"city":"Indianapolis, IN","court_count":4,"access":"public","surface":"","description":""},{"name":"Sahm Park","lat":39.919,"lon":-86.061,"city":"Indianapolis, IN","court_count":4,"access":"public","surface":"","description":""},{"name":"Brookside Park Indianapolis","lat":39.795,"lon":-86.097,"city":"Indianapolis, IN","court_count":4,"access":"public","surface":"","description":""},{"name":"Highland Road Community Park Baton Rouge","lat":30.402,"lon":-91.111,"city":"Baton Rouge, LA","court_count":7,"access":"public","surface":"","description":""},{"name":"The Legacy Baton Rouge","lat":30.465,"lon":-91.145,"city":"Baton Rouge, LA","court_count":8,"access":"fee","surface":"","description":""},{"name":"Baringer Park","lat":30.431,"lon":-91.109,"city":"Baton Rouge, LA","court_count":2,"access":"public","surface":"","description":""},{"name":"Rinconada Park","lat":35.075,"lon":-106.579,"city":"Albuquerque, NM","court_count":4,"access":"public","surface":"","description":""},{"name":"Maplewood Park Raleigh","lat":35.824,"lon":-78.562,"city":"Raleigh, NC","court_count":4,"access":"public","surface":"","description":""},{"name":"Pickles and Play Chapel Hill","lat":35.913,"lon":-79.055,"city":"Chapel Hill, NC","court_count":6,"access":"fee","surface":"","description":""},{"name":"10th East Senior Center","lat":40.75,"lon":-111.875,"city":"Salt Lake City, UT","court_count":4,"access":"fee","surface":"","description":""},{"name":"5th Ave & C Street Pickleball","lat":40.77,"lon":-111.875,"city":"Salt Lake City, UT","court_count":2,"access":"public","surface":"","description":""},{"name":"Clayland Park","lat":44.951,"lon":-93.105,"city":"Saint Paul, MN","court_count":2,"access":"public","surface":"","description":""},{"name":"Bohanon Park","lat":44.968,"lon":-93.32,"city":"Minneapolis, MN","court_count":2,"access":"public","surface":"","description":""},{"name":"Belvoir Tennis Center","lat":39.142,"lon":-84.506,"city":"Cincinnati, OH","court_count":4,"access":"fee","surface":"","description":""},{"name":"Elmwood Park Tennis and Pickleball","lat":41.483,"lon":-81.773,"city":"Cleveland, OH","court_count":6,"access":"public","surface":"","description":""},{"name":"Denison Park Cleveland Heights","lat":41.512,"lon":-81.559,"city":"Cleveland Heights, OH","court_count":6,"access":"public","surface":"","description":""},{"name":"Tibbitts Park Yonkers","lat":40.97,"lon":-73.866,"city":"Yonkers, NY","court_count":6,"access":"public","surface":"","description":""},{"name":"City Walk BHAM","lat":33.512,"lon":-86.816,"city":"Birmingham, AL","court_count":4,"access":"public","surface":"","description":""},{"name":"Clay Tennis and Pickleball Center","lat":33.689,"lon":-86.613,"city":"Birmingham, AL","court_count":4,"access":"fee","surface":"","description":""},{"name":"Marion Franklin Park Columbus","lat":39.879,"lon":-82.987,"city":"Columbus, OH","court_count":3,"access":"public","surface":"","description":""},