[{"name":"Cornishon Pickleball Courts","lat":34.2044856,"lon":-118.2035072,"city":"Los Angeles","court_count":0,"access":"public","surface":"","description":"","geocoded":true},{"name":"Scholl Canyon Golf Course","lat":34.1529672,"lon":-118.2273015,"city":"Glendale, CA","court_count":8,"access":"public","surface":"","description":"","geocoded":true},{"name":"Jefferson Elementary School","lat":34.1538957,"lon":-118.1192368,"city":"Pasadena, CA","court_count":0,"access":"public","surface":"","description":"","geocoded":true},{"name":"iPickle Arcadia","lat":34.1334337,"lon":-118.036376,"city":"Arcadia, CA","court_count":8,"access":"fee","surface":"perm","description":"","geocoded":true},{"name":"iPickle Arroyo Seco","lat":34.1170653,"lon":-118.1679946,"city":"South Pasadena, CA","court_count":12,"access":"fee","surface":"perm","description":"","geocoded":true},{"name":"iPickle The Narrows","lat":34.0428625,"lon":-118.0557184,"city":"South El Monte, CA","court_count":28,"access":"fee","surface":"perm","description":"","geocoded":true},{"name":"iPickle Cerritos","lat":33.8521766,"lon":-118.0634006,"city":"Cerritos, CA","court_count":10,"access":"fee","surface":"perm","description":"","geocoded":true},{"name":"iPickle La Habra","lat":33.9289583,"lon":-117.946213,"city":"La Habra, CA","court_count":17,"access":"fee","surface":"perm","description":"","geocoded":true},{"name":"iPickle Riverside","lat":33.9605784,"lon":-117.3482388,"city":"Riverside, CA","court_count":8,"access":"fee","surface":"perm","description":"","geocoded":true},{"name":"The Picklr - Normal","lat":40.510504,"lon":-88.9606638,"city":"Normal, IL","court_count":9,"access":"fee","surface":"perm","description":"","geocoded":true},{"name":"The Picklr - Bolingbrook","lat":41.7067585,"lon":-88.1268451,"city":"Bolingbrook, IL","court_count":0,"access":"fee","surface":"perm","description":"","geocoded":true},{"name":"The Picklr - Kildeer","lat":42.1587538,"lon":-88.0458435,"city":"Kildeer, IL","court_count":0,"access":"fee","surface":"perm","description":"","geocoded":true},{"name":"The Picklr - Mount Prospect","lat":42.0869091,"lon":-87.9438835,"city":"Mount Prospect, IL","court_count":14,"access":"fee","surface":"perm","description":"","geocoded":true},{"name":"The Picklr - Mundelein","lat":42.2426681,"lon":-87.9939873,"city":"Mundelein, IL","court_count":8,"access":"fee","surface":"perm","description":"","geocoded":true},{"name":"The Picklr - Naperville","lat":41.7582353,"lon":-88.2057301,"city":"Naperville, IL","court_count":9,"access":"fee","surface":"perm","description":"","geocoded":true},{"name":"The Picklr - Villa Park","lat":41.9055443,"lon":-87.973494,"city":"Villa Park, IL","court_count":8,"access":"fee","surface":"perm","description":"","geocoded":true},{"name":"The Picklr - Wheaton","lat":41.8306301,"lon":-88.0976122,"city":"Wheaton, IL","court_count":14,"access":"fee","surface":"perm","description":"","geocoded":true}]