[{"name":"Cornishon Pickleball Courts","lat":34.2044856,"lon":-118.2035072,"city":"Los Angeles","court_count":0,"access":"public","surface":"","description":"","geocoded":true},{"name":"Scholl Canyon Golf Course","lat":34.1529672,"lon":-118.2273015,"city":"Glendale, CA","court_count":8,"access":"public","surface":"","description":"","geocoded":true},{"name":"Jefferson Elementary School","lat":34.1538957,"lon":-118.1192368,"city":"Pasadena, CA","court_count":0,"access":"public","surface":"","description":"","geocoded":true},{"name":"iPickle Arcadia","lat":34.1334337,"lon":-118.036376,"city":"Arcadia, CA","court_count":8,"access":"fee","surface":"perm","description":"","geocoded":true},{"name":"iPickle Arroyo Seco","lat":34.1170653,"lon":-118.1679946,"city":"South Pasadena, CA","court_count":12,"access":"fee","surface":"perm","description":"","geocoded":true},{"name":"iPickle The Narrows","lat":34.0428625,"lon":-118.0557184,"city":"South El Monte, CA","court_count":28,"access":"fee","surface":"perm","description":"","geocoded":true},{"name":"iPickle Cerritos","lat":33.8521766,"lon":-118.0634006,"city":"Cerritos, CA","court_count":10,"access":"fee","surface":"perm","description":"","geocoded":true},{"name":"iPickle La Habra","lat":33.9289583,"lon":-117.946213,"city":"La Habra, CA","court_count":17,"access":"fee","surface":"perm","description":"","geocoded":true},{"name":"iPickle Riverside","lat":33.9605784,"lon":-117.3482388,"city":"Riverside, CA","court_count":8,"access":"fee","surface":"perm","description":"","geocoded":true},{"name":"The Picklr - Normal","lat":40.510504,"lon":-88.9606638,"city":"Normal, IL","court_count":9,"access":"fee","surface":"perm","description":"","geocoded":true},{"name":"The Picklr - Bolingbrook","lat":41.7067585,"lon":-88.1268451,"city":"Bolingbrook, IL","court_count":0,"access":"fee","surface":"perm","description":"","geocoded":true},{"name":"The Picklr - Kildeer","lat":42.1587538,"lon":-88.0458435,"city":"Kildeer, IL","court_count":0,"access":"fee","surface":"perm","description":"","geocoded":true},{"name":"The Picklr - Mount Prospect","lat":42.0869091,"lon":-87.9438835,"city":"Mount Prospect, IL","court_count":14,"access":"fee","surface":"perm","description":"","geocoded":true},{"name":"The Picklr - Mundelein","lat":42.2426681,"lon":-87.9939873,"city":"Mundelein, IL","court_count":8,"access":"fee","surface":"perm","description":"","geocoded":true},{"name":"The Picklr - Naperville","lat":41.7582353,"lon":-88.2057301,"city":"Naperville, IL","court_count":9,"access":"fee","surface":"perm","description":"","geocoded":true},{"name":"The Picklr - Villa Park","lat":41.9055443,"lon":-87.973494,"city":"Villa Park, IL","court_count":8,"access":"fee","surface":"perm","description":"","geocoded":true},{"name":"The Picklr - Wheaton","lat":41.8306301,"lon":-88.0976122,"city":"Wheaton, IL","court_count":14,"access":"fee","surface":"perm","description":"","geocoded":true},{"name":"The Picklr - Carlsbad","lat":33.13578,"lon":-117.27245,"city":"Carlsbad, CA","court_count":10,"access":"fee","surface":"perm","description":"","geocoded":true},{"name":"The Picklr - Fairfield","lat":38.2622,"lon":-122.05804,"city":"Fairfield, CA","court_count":7,"access":"fee","surface":"perm","description":"","geocoded":true},{"name":"The Picklr - Fountain Valley","lat":33.70264,"lon":-117.96991,"city":"Fountain Valley, CA","court_count":6,"access":"fee","surface":"perm","description":"","geocoded":true},{"name":"The Picklr - Milpitas","lat":37.42637,"lon":-121.9228,"city":"Milpitas, CA","court_count":0,"access":"fee","surface":"perm","description":"","geocoded":true},{"name":"The Picklr - Placentia","lat":33.88818,"lon":-117.86218,"city":"Placentia, CA","court_count":7,"access":"fee","surface":"perm","description":"","geocoded":true},{"name":"The Picklr - Rancho Cordova","lat":38.6016,"lon":-121.27143,"city":"Rancho Cordova, CA","court_count":10,"access":"fee","surface":"perm","description":"","geocoded":true},{"name":"The Picklr - Rancho Santa Margarita","lat":33.64001,"lon":-117.59482,"city":"Rancho Santa Margarita, CA","court_count":9,"access":"fee","surface":"perm","description":"","geocoded":true},{"name":"The Picklr - Goleta","lat":34.44277,"lon":-119.83077,"city":"Goleta, CA","court_count":7,"access":"fee","surface":"perm","description":"","geocoded":true},{"name":"The Picklr - Cave Creek","lat":33.79695,"lon":-111.92758,"city":"Scottsdale, AZ","court_count":8,"access":"fee","surface":"perm","description":"","geocoded":true},{"name":"The Picklr - Mesa","lat":33.43594,"lon":-111.70161,"city":"Mesa, AZ","court_count":9,"access":"fee","surface":"perm","description":"","geocoded":true},{"name":"The Picklr - Oro Valley","lat":32.41805,"lon":-110.93753,"city":"Oro Valley, AZ","court_count":11,"access":"fee","surface":"perm","description":"","geocoded":true},{"name":"The Picklr - Peoria","lat":33.61136,"lon":-112.22212,"city":"Peoria, AZ","court_count":8,"access":"fee","surface":"perm","description":"","geocoded":true},{"name":"The Picklr - Scottsdale North","lat":33.53897,"lon":-111.88316,"city":"Scottsdale, AZ","court_count":12,"access":"fee","surface":"perm","description":"","geocoded":true},{"name":"The Picklr - Tempe","lat":33.34904,"lon":-111.96135,"city":"Tempe, AZ","court_count":8,"access":"fee","surface":"perm","description":"","geocoded":true},{"name":"The Picklr - Birmingham","lat":33.43909,"lon":-86.78828,"city":"Vestavia Hills, AL","court_count":10,"access":"fee","surface":"perm","description":"","geocoded":true},{"name":"The Picklr - Huntsville","lat":34.74146,"lon":-86.67327,"city":"Huntsville, AL","court_count":0,"access":"fee","surface":"perm","description":"","geocoded":true},{"name":"The Picklr - Aurora","lat":39.60664,"lon":-104.7103,"city":"Aurora, CO","court_count":8,"access":"fee","surface":"perm","description":"","geocoded":true},{"name":"The Picklr - Cherry Creek South","lat":39.67649,"lon":-104.90154,"city":"Denver, CO","court_count":11,"access":"fee","surface":"perm","description":"","geocoded":true},{"name":"The Picklr - Fort Collins","lat":40.56284,"lon":-105.03734,"city":"Fort Collins, CO","court_count":10,"access":"fee","surface":"perm","description":"","geocoded":true},{"name":"The Picklr - Littleton","lat":39.61771,"lon":-105.09049,"city":"Littleton, CO","court_count":0,"access":"fee","surface":"perm","description":"","geocoded":true},{"name":"The Picklr - Loveland","lat":40.42431,"lon":-105.07766,"city":"Loveland, CO","court_count":9,"access":"fee","surface":"perm","description":"","geocoded":true},{"name":"The Picklr - Thornton","lat":39.87741,"lon":-104.98395,"city":"Thornton, CO","court_count":9,"access":"fee","surface":"perm","description":"","geocoded":true},{"name":"The Picklr - Newark","lat":39.68284,"lon":-75.75157,"city":"Newark, DE","court_count":12,"access":"fee","surface":"perm","description":"","geocoded":true},{"name":"The Picklr - Orlando North","lat":28.67166,"lon":-81.44931,"city":"Apopka, FL","court_count":8,"access":"fee","surface":"perm","description":"","geocoded":true},{"name":"The Picklr - Cumming","lat":34.17353,"lon":-84.13913,"city":"Cumming, GA","court_count":7,"access":"fee","surface":"perm","description":"","geocoded":true},{"name":"The Picklr - Avon","lat":39.76574,"lon":-86.39231,"city":"Avon, IN","court_count":12,"access":"fee","surface":"perm","description":"","geocoded":true},{"name":"The Picklr - Greenwood","lat":39.6137,"lon":-86.10954,"city":"Greenwood, IN","court_count":12,"access":"fee","surface":"perm","description":"","geocoded":true},{"name":"The Picklr - Keystone Crossing","lat":39.9105,"lon":-86.10098,"city":"Indianapolis, IN","court_count":10,"access":"fee","surface":"perm","description":"","geocoded":true},{"name":"The Picklr - Cheyenne","lat":41.13807,"lon":-104.76366,"city":"Cheyenne, WY","court_count":8,"access":"fee","surface":"perm","description":"","geocoded":true}]